$GNGNS,070549.0,,,,,NN,,,,,,*42
$GPVTG,,T,,M,,N,,K,N*2C
$GPGSA,A,1,,,,,,,,,,,,,,,*1E
$GNGSA,A,1,,,,,,,,,,,,,,,*00
$BDGSA,A,1,,,,,,,,,,,,,,,*0F
$GPGGA,,,,,,0,,,,,,,,*66
$GPRMC,,V,,,,,,,,,,N*53
$GLGSV,3,1,10,74,22,324,,66,26,032,,82,54,074,,73,26,264,*6D
$GLGSV,3,2,10,80,02,220,,84,05,289,,83,56,316,,81,08,098,*69
$GLGSV,3,3,10,67,53,098,,68,23,163,*69
$GPGSV,3,1,12,10,57,158,31,16,46,217,35,07,05,307,,08,34,300,*78
$GPGSV,3,2,12,13,05,021,,15,15,049,,18,57,085,,20,06,043,*77
$GPGSV,3,3,12,21,36,073,,26,23,192,,27,72,295,,30,03,334,*7D
$BDGSV,2,1,05,202,06,108,,205,21,130,,206,28,050,,209,37,081,*6A
$BDGSV,2,2,05,213,,,*5D
$GNGNS,070548.6,,,,,NN,,,,,,*45
$GPVTG,,T,,M,,N,,K,N*2C
$GPGSA,A,1,,,,,,,,,,,,,,,*1E
$GNGSA,A,1,,,,,,,,,,,,,,,*00
$BDGSA,A,1,,,,,,,,,,,,,,,*0F
$GPGGA,,,,,,0,,,,,,,,*66
$GPRMC,,V,,,,,,,,,,N*53
$GLGSV,3,1,10,73,26,264,24,67,53,098,20,68,23,163,31,74,22,324,*6B
$GLGSV,3,2,10,66,26,032,,82,54,074,,80,02,220,,84,05,289,*68
$GLGSV,3,3,10,83,56,316,,81,08,098,*68
$GPGSV,3,1,12,08,34,300,21,10,57,158,32,15,15,049,24,16,46,217,34*74
$GPGSV,3,2,12,18,58,085,23,26,23,192,31,07,05,307,,13,05,021,*7C
$GPGSV,3,3,12,20,06,043,,21,36,073,,27,72,295,,30,03,334,*71
$BDGSV,2,1,05,202,06,108,,205,21,130,,206,28,050,,209,37,081,*6A
$BDGSV,2,2,05,213,,,*5D
$GPGGA,070550.0,4949.459645,N,01812.570809,E,1,06,1.1,242.8,M,43.0,M,,*50
$GNGNS,070550.0,4949.459645,N,01812.570809,E,AA,08,1.1,242.8,43.0,,*6A
$GPVTG,281.7,T,279.3,M,0.0,N,0.0,K,A*20
$GPGSA,A,2,08,10,15,16,18,26,,,,,,,1.4,1.1,0.9*38
$GNGSA,A,2,08,10,15,16,18,26,,,,,,,1.4,1.1,0.9*26
$GNGSA,A,2,67,68,,,,,,,,,,,1.4,1.1,0.9*2E
$BDGSA,A,2,,,,,,,,,,,,,1.4,1.1,0.9*2E
$GPRMC,070550.0,A,4949.459645,N,01812.570809,E,0.0,281.7,021117,2.4,E,A*0A
$GLGSV,3,1,10,66,26,032,19,82,54,074,20,73,26,264,22,83,56,316,17*6B
$GLGSV,3,2,10,67,53,098,20,68,23,163,30,74,22,324,,80,02,220,*65
$GLGSV,3,3,10,84,05,289,,81,08,098,*6E
$GPGSV,3,1,12,07,05,307,18,08,34,300,18,10,57,158,34,13,05,021,18*77
$GPGSV,3,2,12,15,15,049,25,16,46,217,36,18,58,085,28,26,23,192,34*7E
$GPGSV,3,3,12,30,03,334,24,20,06,043,,21,36,073,,27,72,295,*77
$BDGSV,2,1,05,202,06,108,,205,21,130,,206,28,050,,209,37,081,*6A
$BDGSV,2,2,05,213,,,*5D
$GPGGA,070551.0,4949.459727,N,01812.570781,E,1,05,2.2,244.0,M,43.0,M,,*56
$GNGNS,070551.0,4949.459727,N,01812.570781,E,AA,06,2.2,244.0,43.0,,*61
$GPVTG,281.7,T,279.3,M,0.0,N,0.0,K,A*20
$GPGSA,A,2,10,15,16,18,26,,,,,,,,2.4,2.2,0.9*33
$GNGSA,A,2,10,15,16,18,26,,,,,,,,2.4,2.2,0.9*2D
$GNGSA,A,2,68,,,,,,,,,,,,2.4,2.2,0.9*2C
$BDGSA,A,2,,,,,,,,,,,,,2.4,2.2,0.9*2D
$GPRMC,070551.0,A,4949.459727,N,01812.570781,E,0.0,281.7,021117,2.4,E,A*01
$GLGSV,3,1,10,66,26,032,20,82,54,074,21,73,26,264,24,83,56,316,19*68
$GLGSV,3,2,10,67,53,098,23,68,23,163,30,74,22,324,,80,02,220,*66
$GLGSV,3,3,10,84,05,289,,81,08,098,*6E
$GPGSV,3,1,12,07,05,307,17,08,34,300,18,10,57,158,36,13,05,021,21*70
$GPGSV,3,2,12,15,15,049,25,16,46,217,37,18,58,085,26,20,06,043,17*7C
$GPGSV,3,3,12,26,23,192,35,27,72,295,18,30,03,334,25,21,36,073,*75
$BDGSV,2,1,05,202,06,108,,205,21,130,,206,28,050,,209,37,081,*6A
$BDGSV,2,2,05,213,,,*5D
$GPGGA,070552.0,4949.459721,N,01812.570960,E,1,06,1.5,243.9,M,43.0,M,,*5B
$GNGNS,070552.0,4949.459721,N,01812.570960,E,AA,10,1.5,243.9,43.0,,*68
$GPVTG,281.7,T,279.3,M,0.0,N,0.0,K,A*20
$GPGSA,A,2,10,13,15,16,18,26,,,,,,,1.7,1.5,0.8*34
$GNGSA,A,2,10,13,15,16,18,26,,,,,,,1.7,1.5,0.8*2A
$GNGSA,A,2,66,82,67,68,,,,,,,,,1.7,1.5,0.8*22
$BDGSA,A,2,,,,,,,,,,,,,1.7,1.5,0.8*28
$GPRMC,070552.0,A,4949.459721,N,01812.570960,E,0.0,281.7,021117,2.4,E,A*05
$GLGSV,3,1,10,66,26,032,20,82,54,074,21,73,26,264,23,83,56,316,19*6F
$GLGSV,3,2,10,67,53,098,23,68,23,163,29,74,22,324,,80,02,220,*6E
$GLGSV,3,3,10,84,05,289,,81,08,098,*6E
$GPGSV,3,1,12,07,05,307,16,08,34,300,18,10,57,158,34,13,05,021,21*73
$GPGSV,3,2,12,15,15,049,25,16,46,217,35,18,58,085,25,26,23,192,33*77
$GPGSV,3,3,12,27,72,295,20,30,03,334,22,20,06,043,,21,36,073,*73
$BDGSV,2,1,05,202,06,108,,205,21,130,,206,28,050,,209,37,081,*6A
$BDGSV,2,2,05,213,,,*5D
$GPGGA,070553.0,4949.459697,N,01812.571398,E,1,09,0.8,244.8,M,43.0,M,,*5F
$GNGNS,070553.0,4949.459697,N,01812.571398,E,AA,14,0.8,244.8,43.0,,*67
$GPVTG,281.7,T,279.3,M,0.0,N,0.0,K,A*20
$GPGSA,A,2,07,08,10,13,15,16,18,26,27,,,,1.0,0.8,0.7*3A
$GNGSA,A,2,07,08,10,13,15,16,18,26,27,,,,1.0,0.8,0.7*24
$GNGSA,A,2,66,82,83,67,68,,,,,,,,1.0,0.8,0.7*2D
$BDGSA,A,2,,,,,,,,,,,,,1.0,0.8,0.7*2C
$GPRMC,070553.0,A,4949.459697,N,01812.571398,E,0.0,281.7,021117,2.4,E,A*04
$GLGSV,3,1,10,74,22,324,14,66,26,032,19,82,54,074,21,73,26,264,26*67
$GLGSV,3,2,10,83,56,316,18,67,53,098,23,68,23,163,25,80,02,220,*61
$GLGSV,3,3,10,84,05,289,,81,08,098,*6E
$GPGSV,3,1,12,07,05,307,17,08,34,300,26,10,57,158,36,13,05,021,20*7C
$GPGSV,3,2,12,15,15,049,24,16,46,217,36,18,58,085,24,26,23,192,27*71
$GPGSV,3,3,12,27,72,295,21,30,03,334,20,20,06,043,,21,36,073,*70
$BDGSV,2,1,05,202,06,108,,205,21,130,,206,28,050,,209,37,081,*6A
$BDGSV,2,2,05,213,,,*5D
$GPGGA,070554.0,4949.460074,N,01812.571410,E,1,07,1.0,244.7,M,43.0,M,,*56
$GNGNS,070554.0,4949.460074,N,01812.571410,E,AA,10,1.0,244.7,43.0,,*64
$GPVTG,287.7,T,285.3,M,1.0,N,1.8,K,A*2D
$GPGSA,A,2,08,10,15,16,18,26,27,,,,,,1.3,1.0,0.8*3A
$GNGSA,A,2,08,10,15,16,18,26,27,,,,,,1.3,1.0,0.8*24
$GNGSA,A,2,82,67,68,,,,,,,,,,1.3,1.0,0.8*23
$BDGSA,A,2,,,,,,,,,,,,,1.3,1.0,0.8*29
$GPRMC,070554.0,A,4949.460074,N,01812.571410,E,1.0,287.7,021117,2.4,E,A*02
$GLGSV,3,1,10,74,22,324,14,66,26,032,19,82,54,074,21,73,26,264,26*67
$GLGSV,3,2,10,83,56,316,18,67,53,098,23,68,23,163,28,80,02,220,*6C
$GLGSV,3,3,10,84,05,289,,81,08,098,*6E
$GPGSV,3,1,12,07,05,307,17,08,34,300,22,10,57,158,38,13,05,021,23*75
$GPGSV,3,2,12,15,15,049,29,16,46,217,36,18,58,085,26,26,23,192,36*7E
$GPGSV,3,3,12,27,72,295,25,30,03,334,26,20,06,043,,21,36,073,*72
$BDGSV,2,1,05,202,06,108,,205,21,130,,206,28,050,,209,37,081,*6A
$BDGSV,2,2,05,213,,,*5D
$GPGGA,070555.0,4949.459364,N,01812.572310,E,1,08,1.0,242.4,M,43.0,M,,*51
$GNGNS,070555.0,4949.459364,N,01812.572310,E,AA,11,1.0,242.4,43.0,,*6D
$GPVTG,233.5,T,231.2,M,0.8,N,1.4,K,A*2B
$GPGSA,A,2,08,10,13,15,16,18,26,27,,,,,1.2,1.0,0.8*39
$GNGSA,A,2,08,10,13,15,16,18,26,27,,,,,1.2,1.0,0.8*27
$GNGSA,A,2,82,67,68,,,,,,,,,,1.2,1.0,0.8*22
$BDGSA,A,2,,,,,,,,,,,,,1.2,1.0,0.8*28
$GPRMC,070555.0,A,4949.459364,N,01812.572310,E,0.8,233.5,021117,2.4,E,A*0B
$GLGSV,3,1,10,74,22,324,14,66,26,032,20,82,54,074,20,73,26,264,26*6C
$GLGSV,3,2,10,83,56,316,21,67,53,098,24,68,23,163,30,80,02,220,*68
$GLGSV,3,3,10,84,05,289,,81,08,098,*6E
$GPGSV,3,1,12,07,05,307,18,08,34,300,22,10,57,158,37,13,05,021,24*72
$GPGSV,3,2,12,15,15,049,28,16,46,217,36,18,58,085,27,26,23,192,36*7E
$GPGSV,3,3,12,27,72,295,25,30,03,334,26,20,06,043,,21,36,073,*72
$BDGSV,2,1,05,202,06,108,,205,21,130,,206,28,050,,209,37,081,*6A
$BDGSV,2,2,05,213,,,*5D
$GPGGA,070556.0,4949.459386,N,01812.570800,E,1,08,0.8,241.0,M,43.0,M,,*58
$GNGNS,070556.0,4949.459386,N,01812.570800,E,AA,13,0.8,241.0,43.0,,*66
$GPVTG,251.6,T,249.2,M,1.8,N,3.3,K,A*27
$GPGSA,A,2,08,10,13,15,16,18,26,27,,,,,1.1,0.8,0.8*33
$GNGSA,A,2,08,10,13,15,16,18,26,27,,,,,1.1,0.8,0.8*2D
$GNGSA,A,2,66,82,83,67,68,,,,,,,,1.1,0.8,0.8*23
$BDGSA,A,2,,,,,,,,,,,,,1.1,0.8,0.8*22
$GPRMC,070556.0,A,4949.459386,N,01812.570800,E,1.8,251.6,021117,2.4,E,A*0A
$GLGSV,3,1,10,74,22,324,14,66,26,032,22,82,54,074,20,73,26,264,25*6D
$GLGSV,3,2,10,83,56,316,23,67,53,098,24,68,23,163,29,80,02,220,*62
$GLGSV,3,3,10,84,05,289,,81,08,098,*6E
$GPGSV,3,1,12,07,05,307,19,08,34,300,21,10,57,158,37,13,05,021,23*77
$GPGSV,3,2,12,15,15,049,26,16,46,217,37,18,58,085,28,20,06,043,19*7F
$GPGSV,3,3,12,26,23,192,36,27,72,295,24,30,03,334,26,21,36,073,*7A
$BDGSV,2,1,05,202,06,108,,205,21,130,,206,28,050,,209,37,081,*6A
$BDGSV,2,2,05,213,,,*5D
$GPGGA,070557.0,4949.459810,N,01812.567697,E,1,08,0.9,241.5,M,43.0,M,,*5F
$GNGNS,070557.0,4949.459810,N,01812.567697,E,AA,12,0.9,241.5,43.0,,*60
$GPVTG,261.7,T,259.3,M,3.9,N,7.3,K,A*22
$GPGSA,A,2,08,10,13,15,16,18,26,27,,,,,1.1,0.9,0.8*32
$GNGSA,A,2,08,10,13,15,16,18,26,27,,,,,1.1,0.9,0.8*2C
$GNGSA,A,2,66,83,67,68,,,,,,,,,1.1,0.9,0.8*28
$BDGSA,A,2,,,,,,,,,,,,,1.1,0.9,0.8*23
$GPRMC,070557.0,A,4949.459810,N,01812.567697,E,3.9,261.7,021117,2.4,E,A*08
$GLGSV,3,1,10,74,22,324,14,66,26,032,22,82,54,074,20,73,26,264,25*6D
$GLGSV,3,2,10,83,56,316,22,67,53,098,24,68,23,163,28,80,02,220,*62
$GLGSV,3,3,10,84,05,289,,81,08,098,*6E
$GPGSV,3,1,12,07,05,307,23,08,34,300,20,10,57,158,35,13,05,021,23*7D
$GPGSV,3,2,12,15,15,049,23,16,46,217,35,18,58,085,27,20,06,043,21*7C
$GPGSV,3,3,12,26,23,192,35,27,72,295,23,30,03,334,25,21,36,073,*7D
$BDGSV,2,1,05,202,06,108,,205,21,130,,206,28,050,,209,37,081,*6A
$BDGSV,2,2,05,213,,,*5D
$GPGGA,070558.0,4949.460437,N,01812.564260,E,1,10,0.7,242.5,M,43.0,M,,*58
$GNGNS,070558.0,4949.460437,N,01812.564260,E,AA,14,0.7,242.5,43.0,,*68
$GPVTG,267.1,T,264.8,M,5.9,N,10.9,K,A*1D
$GPGSA,A,2,07,08,10,13,15,16,18,20,26,27,,,1.0,0.7,0.7*37
$GNGSA,A,2,07,08,10,13,15,16,18,20,26,27,,,1.0,0.7,0.7*29
$GNGSA,A,2,66,83,67,68,,,,,,,,,1.0,0.7,0.7*28
$BDGSA,A,2,,,,,,,,,,,,,1.0,0.7,0.7*23
$GPRMC,070558.0,A,4949.460437,N,01812.564260,E,5.9,267.1,021117,2.4,E,A*0D
$GLGSV,3,1,10,74,22,324,14,66,26,032,24,82,54,074,21,73,26,264,25*6A
$GLGSV,3,2,10,83,56,316,18,67,53,098,24,68,23,163,29,80,02,220,*6A
$GLGSV,3,3,10,84,05,289,,81,08,098,*6E
$GPGSV,3,1,12,07,05,307,27,08,34,300,21,10,57,158,36,13,05,021,27*7F
$GPGSV,3,2,12,15,15,049,19,16,46,217,36,18,58,085,25,20,06,043,18*7E
$GPGSV,3,3,12,26,23,192,33,27,72,295,22,30,03,334,23,21,36,073,*7C
$BDGSV,2,1,05,202,06,108,,205,21,130,,206,28,050,,209,37,081,*6A
$BDGSV,2,2,05,213,,,*5D
$GPGGA,070559.0,4949.461772,N,01812.560199,E,1,08,0.9,242.4,M,43.0,M,,*5D
$GNGNS,070559.0,4949.461772,N,01812.560199,E,AA,12,0.9,242.4,43.0,,*62
$GPVTG,283.9,T,281.5,M,7.5,N,13.9,K,A*14
$GPGSA,A,2,07,08,10,13,16,18,26,27,,,,,1.2,0.9,0.8*32
$GNGSA,A,2,07,08,10,13,16,18,26,27,,,,,1.2,0.9,0.8*2C
$GNGSA,A,2,66,82,67,68,,,,,,,,,1.2,0.9,0.8*2A
$BDGSA,A,2,,,,,,,,,,,,,1.2,0.9,0.8*20
$GPRMC,070559.0,A,4949.461772,N,01812.560199,E,7.5,283.9,021117,2.4,E,A*02
$GLGSV,3,1,10,74,22,324,15,66,26,032,20,82,54,074,20,73,26,264,27*6C
$GLGSV,3,2,10,83,56,316,18,67,53,098,23,68,23,163,27,80,02,220,*63
$GLGSV,3,3,10,84,05,289,,81,08,098,*6E
$GPGSV,3,1,12,07,05,307,28,08,34,300,19,10,57,158,39,13,05,021,29*7A
$GPGSV,3,2,12,15,15,049,31,16,46,217,38,18,58,085,22,20,06,043,18*7D
$GPGSV,3,3,12,26,23,192,34,27,72,295,22,30,03,334,28,21,36,073,*70
$BDGSV,2,1,05,202,06,108,,205,21,130,,206,28,050,,209,37,081,*6A
$BDGSV,2,2,05,213,,,*5D
$GPGGA,070600.0,4949.462958,N,01812.554656,E,1,07,1.0,241.2,M,43.0,M,,*56
$GNGNS,070600.0,4949.462958,N,01812.554656,E,AA,10,1.0,241.2,43.0,,*64
$GPVTG,281.6,T,279.3,M,9.5,N,17.5,K,A*1E
$GPGSA,A,2,07,10,13,15,16,18,26,,,,,,1.3,1.0,0.8*32
$GNGSA,A,2,07,10,13,15,16,18,26,,,,,,1.3,1.0,0.8*2C
$GNGSA,A,2,82,67,68,,,,,,,,,,1.3,1.0,0.8*23
$BDGSA,A,2,,,,,,,,,,,,,1.3,1.0,0.8*29
$GPRMC,070600.0,A,4949.462958,N,01812.554656,E,9.5,281.6,021117,2.4,E,A*08
$GLGSV,3,1,10,74,22,324,15,66,26,032,20,82,54,074,20,73,26,264,27*6C
$GLGSV,3,2,10,83,56,316,18,67,53,098,18,68,23,163,25,80,02,220,*69
$GLGSV,3,3,10,84,05,289,,81,08,098,*6E
$GPGSV,3,1,12,07,05,307,27,08,34,300,19,10,57,158,36,13,05,021,27*74
$GPGSV,3,2,12,15,15,049,32,16,46,217,36,18,58,085,24,20,06,043,18*76
$GPGSV,3,3,12,26,23,192,35,27,72,295,18,30,03,334,31,21,36,073,*70
$BDGSV,2,1,05,206,28,050,24,202,06,108,,205,21,130,,209,37,081,*6C
$BDGSV,2,2,05,213,,,*5D
$GPGGA,070601.0,4949.465818,N,01812.541677,E,1,07,1.0,240.6,M,43.0,M,,*57
$GNGNS,070601.0,4949.465818,N,01812.541677,E,AA,08,1.0,240.6,43.0,,*6C
$GPVTG,283.1,T,280.8,M,17.2,N,31.9,K,A*26
$GPGSA,A,2,07,10,13,15,16,18,26,,,,,,1.3,1.0,0.9*33
$GNGSA,A,2,07,10,13,15,16,18,26,,,,,,1.3,1.0,0.9*2D
$GNGSA,A,2,68,,,,,,,,,,,,1.3,1.0,0.9*29
$BDGSA,A,2,,,,,,,,,,,,,1.3,1.0,0.9*28
$GPRMC,070601.0,A,4949.465818,N,01812.541677,E,17.2,283.1,021117,2.4,E,A*31
$GLGSV,3,1,10,74,22,324,15,66,26,032,15,82,54,074,17,73,26,264,26*6F
$GLGSV,3,2,10,83,56,316,13,67,53,098,20,68,23,163,27,80,02,220,*6B
$GLGSV,3,3,10,84,05,289,,81,08,098,*6E
$GPGSV,3,1,12,07,05,307,26,08,34,300,19,10,57,158,37,13,05,021,21*72
$GPGSV,3,2,12,15,15,049,33,16,46,217,35,18,58,085,26,20,06,043,18*76
$GPGSV,3,3,12,26,23,192,34,27,72,295,16,30,03,334,31,21,36,073,*7F
$BDGSV,2,1,05,206,28,050,23,209,37,081,22,202,06,108,,205,21,130,*6B
$BDGSV,2,2,05,213,,,*5D
$GPGGA,070602.0,4949.466483,N,01812.535195,E,1,07,1.0,238.9,M,43.0,M,,*51
$GNGNS,070602.0,4949.466483,N,01812.535195,E,AA,09,1.0,238.9,43.0,,*6B
$GPVTG,282.3,T,280.0,M,17.8,N,32.9,K,A*24
$GPGSA,A,2,07,10,13,15,16,18,26,,,,,,1.3,1.0,0.8*32
$GNGSA,A,2,07,10,13,15,16,18,26,,,,,,1.3,1.0,0.8*2C
$GNGSA,A,2,67,68,,,,,,,,,,,1.3,1.0,0.8*29
$BDGSA,A,2,209,,,,,,,,,,,,1.3,1.0,0.8*12
$GPRMC,070602.0,A,4949.466483,N,01812.535195,E,17.8,282.3,021117,2.4,E,A*3E
$GLGSV,3,1,10,74,22,324,15,66,26,032,22,82,54,074,17,73,26,264,25*68
$GLGSV,3,2,10,83,56,316,13,67,53,098,20,68,23,163,27,80,02,220,*6B
$GLGSV,3,3,10,84,05,289,,81,08,098,*6E
$GPGSV,3,1,12,07,05,307,26,08,34,300,17,10,57,158,37,13,05,021,25*78
$GPGSV,3,2,12,15,15,049,33,16,46,217,35,18,58,085,27,20,06,043,20*7C
$GPGSV,3,3,12,26,23,192,34,27,72,295,22,30,03,334,31,21,36,073,*78
$BDGSV,2,1,05,206,28,050,20,209,37,081,21,202,06,108,,205,21,130,*6B
$BDGSV,2,2,05,213,,,*5D
$GPGGA,070603.0,4949.468964,N,01812.524237,E,1,08,0.9,238.4,M,43.0,M,,*5B
$GNGNS,070603.0,4949.468964,N,01812.524237,E,AA,11,0.9,238.4,43.0,,*67
$GPVTG,283.6,T,281.2,M,21.2,N,39.3,K,A*2D
$GPGSA,A,2,07,10,13,15,16,18,26,27,,,,,1.2,0.9,0.8*3E
$GNGSA,A,2,07,10,13,15,16,18,26,27,,,,,1.2,0.9,0.8*20
$GNGSA,A,2,66,67,68,,,,,,,,,,1.2,0.9,0.8*20
$BDGSA,A,2,209,,,,,,,,,,,,1.2,0.9,0.8*1B
$GPRMC,070603.0,A,4949.468964,N,01812.524237,E,21.2,283.6,021117,2.4,E,A*35
$GLGSV,3,1,10,74,22,324,15,66,26,032,18,82,54,074,15,73,26,264,27*61
$GLGSV,3,2,10,83,56,316,15,67,53,098,21,68,23,163,27,80,02,220,*6C
$GLGSV,3,3,10,84,05,289,,81,08,098,*6E
$GPGSV,3,1,12,07,05,307,22,08,34,300,17,10,57,158,39,13,05,021,26*71
$GPGSV,3,2,12,15,15,049,31,16,46,217,36,18,58,085,26,20,06,043,20*7C
$GPGSV,3,3,12,21,36,073,24,26,23,192,34,27,72,295,21,30,03,334,31*7D
$BDGSV,2,1,05,205,21,130,20,206,28,050,21,209,37,081,20,202,06,108,*69
$BDGSV,2,2,05,213,,,*5D
$GPGGA,070604.0,4949.470269,N,01812.515483,E,1,09,0.9,237.9,M,43.0,M,,*5B
$GNGNS,070604.0,4949.470269,N,01812.515483,E,AA,11,0.9,237.9,43.0,,*66
$GPVTG,282.7,T,280.3,M,21.5,N,39.8,K,A*21
$GPGSA,A,2,07,10,13,15,16,18,21,26,27,,,,1.2,0.9,0.8*3D
$GNGSA,A,2,07,10,13,15,16,18,21,26,27,,,,1.2,0.9,0.8*23
$GNGSA,A,2,67,68,,,,,,,,,,,1.2,0.9,0.8*20
$BDGSA,A,2,209,,,,,,,,,,,,1.2,0.9,0.8*1B
$GPRMC,070604.0,A,4949.470269,N,01812.515483,E,21.5,282.7,021117,2.4,E,A*31
$GLGSV,3,1,10,74,22,324,15,66,26,032,26,82,54,074,22,73,26,264,25*6A
$GLGSV,3,2,10,83,56,316,15,67,53,098,20,68,23,163,30,80,02,220,*6B
$GLGSV,3,3,10,84,05,289,,81,08,098,*6E
$GPGSV,3,1,12,07,05,307,22,08,34,300,17,10,57,158,38,13,05,021,25*73
$GPGSV,3,2,12,15,15,049,32,16,46,217,37,18,58,085,25,20,06,043,19*77
$GPGSV,3,3,12,21,36,073,24,26,23,192,33,27,72,295,20,30,03,334,30*7A
$BDGSV,2,1,05,205,21,130,20,206,28,050,20,209,37,081,16,202,06,108,*6D
$BDGSV,2,2,05,213,,,*5D
$GPGGA,070605.0,4949.472137,N,01812.505527,E,1,08,0.9,238.1,M,43.0,M,,*58
$GNGNS,070605.0,4949.472137,N,01812.505527,E,AA,11,0.9,238.1,43.0,,*64
$GPVTG,282.8,T,280.4,M,22.4,N,41.4,K,A*28
$GPGSA,A,2,07,10,13,15,16,18,21,26,,,,,1.2,0.9,0.8*38
$GNGSA,A,2,07,10,13,15,16,18,21,26,,,,,1.2,0.9,0.8*26
$GNGSA,A,2,66,82,68,,,,,,,,,,1.2,0.9,0.8*2B
$BDGSA,A,2,,,,,,,,,,,,,1.2,0.9,0.8*20
$GPRMC,070605.0,A,4949.472137,N,01812.505527,E,22.4,282.8,021117,2.4,E,A*39
$GLGSV,3,1,10,74,22,324,15,66,26,032,21,82,54,074,18,73,26,264,24*65
$GLGSV,3,2,10,83,56,316,15,67,53,098,22,68,23,163,29,80,02,220,*61
$GLGSV,3,3,10,84,05,289,,81,08,098,*6E
$GPGSV,3,1,12,07,05,307,23,08,34,300,21,10,57,158,36,13,05,021,22*7E
$GPGSV,3,2,12,15,15,049,31,16,46,217,35,18,58,085,21,20,06,043,17*7C
$GPGSV,3,3,12,21,36,073,24,26,23,192,33,27,72,295,20,30,03,334,28*73
$BDGSV,2,1,05,205,21,130,21,206,28,050,17,209,37,081,16,202,06,108,*68
$BDGSV,2,2,05,213,,,*5D
$GPGGA,070606.0,4949.474639,N,01812.494619,E,1,08,0.8,237.2,M,43.0,M,,*5E
$GNGNS,070606.0,4949.474639,N,01812.494619,E,AA,11,0.8,237.2,43.0,,*62
$GPVTG,284.0,T,281.7,M,23.9,N,44.3,K,A*2A
$GPGSA,A,2,07,08,10,13,15,16,18,26,,,,,1.2,0.8,0.8*32
$GNGSA,A,2,07,08,10,13,15,16,18,26,,,,,1.2,0.8,0.8*2C
$GNGSA,A,2,66,67,68,,,,,,,,,,1.2,0.8,0.8*21
$BDGSA,A,2,,,,,,,,,,,,,1.2,0.8,0.8*21
$GPRMC,070606.0,A,4949.474639,N,01812.494619,E,23.9,284.0,021117,2.4,E,A*30
$GLGSV,3,1,10,74,22,324,15,66,26,032,22,82,54,074,18,73,26,264,24*66
$GLGSV,3,2,10,83,56,316,15,67,53,098,24,68,23,163,31,80,02,220,*6E
$GLGSV,3,3,10,84,05,289,,81,08,098,*6E
$GPGSV,3,1,12,07,05,307,17,08,34,300,20,10,57,158,35,13,05,021,22*7B
$GPGSV,3,2,12,15,15,049,30,16,46,217,34,18,58,085,20,20,06,043,18*72
$GPGSV,3,3,12,26,23,192,30,27,72,295,19,30,03,334,25,21,36,073,*71
$BDGSV,2,1,05,205,21,130,21,206,28,050,19,209,37,081,16,202,06,108,*66
$BDGSV,2,2,05,213,,,*5D
$GPGGA,070607.0,4949.476165,N,01812.483714,E,1,05,1.6,236.7,M,43.0,M,,*5F
$GNGNS,070607.0,4949.476165,N,01812.483714,E,AA,08,1.6,236.7,43.0,,*66
$GPVTG,283.3,T,280.9,M,24.9,N,46.2,K,A*25
$GPGSA,A,2,10,13,15,16,26,,,,,,,,1.8,1.6,0.9*30
$GNGSA,A,2,10,13,15,16,26,,,,,,,,1.8,1.6,0.9*2E
$GNGSA,A,2,66,67,68,,,,,,,,,,1.8,1.6,0.9*25
$BDGSA,A,2,,,,,,,,,,,,,1.8,1.6,0.9*25
$GPRMC,070607.0,A,4949.476165,N,01812.483714,E,24.9,283.3,021117,2.4,E,A*34
$GLGSV,3,1,10,74,22,324,15,66,26,032,24,82,54,074,19,73,26,264,25*60
$GLGSV,3,2,10,83,56,316,15,67,53,098,22,68,23,163,32,80,02,220,*6B
$GLGSV,3,3,10,84,05,289,,81,08,098,*6E
$GPGSV,3,1,12,07,05,307,19,08,34,300,23,10,57,158,37,13,05,021,20*76
$GPGSV,3,2,12,15,15,049,31,16,46,217,36,18,58,085,20,20,06,043,18*71
$GPGSV,3,3,12,26,23,192,34,27,72,295,20,30,03,334,25,21,36,073,*7F
$BDGSV,2,1,05,205,21,130,21,206,28,050,22,209,37,081,16,202,06,108,*6E
$BDGSV,2,2,05,213,,,*5D
$GPGGA,070608.0,4949.478779,N,01812.472146,E,1,06,1.0,235.7,M,43.0,M,,*5C
$GNGNS,070608.0,4949.478779,N,01812.472146,E,AA,09,1.0,235.7,43.0,,*67
$GPVTG,284.1,T,281.8,M,26.0,N,48.1,K,A*26
$GPGSA,A,2,08,10,15,16,26,27,,,,,,,1.3,1.0,0.8*33
$GNGSA,A,2,08,10,15,16,26,27,,,,,,,1.3,1.0,0.8*2D
$GNGSA,A,2,66,67,68,,,,,,,,,,1.3,1.0,0.8*29
$BDGSA,A,2,,,,,,,,,,,,,1.3,1.0,0.8*29
$GPRMC,070608.0,A,4949.478779,N,01812.472146,E,26.0,284.1,021117,2.4,E,A*3F
$GLGSV,3,1,10,74,22,324,15,66,26,032,24,82,54,074,19,73,26,264,26*63
$GLGSV,3,2,10,83,56,316,17,67,53,098,22,68,23,163,31,80,02,220,*6A
$GLGSV,3,3,10,84,05,289,,81,08,098,*6E
$GPGSV,3,1,12,07,05,307,19,08,34,300,25,10,57,158,38,13,05,021,21*7E
$GPGSV,3,2,12,15,15,049,34,16,46,217,36,18,58,085,18,26,23,192,34*7D
$GPGSV,3,3,12,27,72,295,21,30,03,334,22,20,06,043,,21,36,073,*72
$BDGSV,2,1,05,205,21,130,22,206,28,050,22,209,37,081,16,202,06,108,*6D
$BDGSV,2,2,05,213,,,*5D
$GPGGA,070609.0,4949.481548,N,01812.459554,E,1,07,1.0,235.7,M,43.0,M,,*54
$GNGNS,070609.0,4949.481548,N,01812.459554,E,AA,09,1.0,235.7,43.0,,*6E
$GPVTG,284.7,T,282.3,M,27.3,N,50.5,K,A*27
$GPGSA,A,2,08,10,13,15,16,26,27,,,,,,1.3,1.0,0.8*31
$GNGSA,A,2,08,10,13,15,16,26,27,,,,,,1.3,1.0,0.8*2F
$GNGSA,A,2,66,68,,,,,,,,,,,1.3,1.0,0.8*28
$BDGSA,A,2,,,,,,,,,,,,,1.3,1.0,0.8*29
$GPRMC,070609.0,A,4949.481548,N,01812.459554,E,27.3,284.7,021117,2.4,E,A*32
$GLGSV,3,1,10,74,22,324,16,66,26,032,23,82,54,074,16,73,26,264,27*69
$GLGSV,3,2,10,83,56,316,18,67,53,098,18,68,23,163,29,80,02,220,*65
$GLGSV,3,3,10,84,05,289,,81,08,098,*6E
$GPGSV,3,1,12,07,05,307,19,08,34,300,27,10,57,158,39,13,05,021,22*7E
$GPGSV,3,2,12,15,15,049,34,16,46,217,36,18,58,085,21,26,23,192,36*75
$GPGSV,3,3,12,27,72,295,22,20,06,043,,21,36,073,,30,03,334,*71
$BDGSV,2,1,05,205,21,130,22,206,28,050,24,209,37,081,16,202,06,108,*6B
$BDGSV,2,2,05,213,,,*5D
$GPGGA,070610.0,4949.484494,N,01812.446231,E,1,08,1.0,235.5,M,43.0,M,,*5E
$GNGNS,070610.0,4949.484494,N,01812.446231,E,AA,10,1.0,235.5,43.0,,*63
$GPVTG,285.3,T,282.9,M,28.4,N,52.7,K,A*20
$GPGSA,A,2,08,10,13,15,16,18,26,27,,,,,1.3,1.0,0.8*38
$GNGSA,A,2,08,10,13,15,16,18,26,27,,,,,1.3,1.0,0.8*26
$GNGSA,A,2,66,68,,,,,,,,,,,1.3,1.0,0.8*28
$BDGSA,A,2,,,,,,,,,,,,,1.3,1.0,0.8*29
$GPRMC,070610.0,A,4949.484494,N,01812.446231,E,28.4,285.3,021117,2.4,E,A*38
$GLGSV,3,1,10,74,22,324,16,66,26,032,24,82,54,074,19,73,26,264,26*60
$GLGSV,3,2,10,83,56,316,21,67,53,098,18,68,23,163,28,80,02,220,*6E
$GLGSV,3,3,10,84,05,289,,81,08,098,*6E
$GPGSV,3,1,12,07,05,307,19,08,34,300,28,10,57,158,39,13,05,021,27*74
$GPGSV,3,2,12,15,15,049,33,16,46,217,37,18,58,085,22,20,06,043,24*7F
$GPGSV,3,3,12,26,23,192,36,27,72,295,24,21,36,073,,30,03,334,*7E
$BDGSV,2,1,05,205,21,130,22,206,28,050,20,209,37,081,11,202,06,108,*68
$BDGSV,2,2,05,213,,,*5D
$GPGGA,070611.0,4949.487678,N,01812.432697,E,1,09,0.9,235.4,M,43.0,M,,*5F
$GNGNS,070611.0,4949.487678,N,01812.432697,E,AA,12,0.9,235.4,43.0,,*61
$GPVTG,286.1,T,283.8,M,29.9,N,55.3,K,A*2E
$GPGSA,A,2,08,10,13,15,16,18,20,26,27,,,,1.2,0.9,0.8*33
$GNGSA,A,2,08,10,13,15,16,18,20,26,27,,,,1.2,0.9,0.8*2D
$GNGSA,A,2,66,83,68,,,,,,,,,,1.2,0.9,0.8*2A
$BDGSA,A,2,,,,,,,,,,,,,1.2,0.9,0.8*20
$GPRMC,070611.0,A,4949.487678,N,01812.432697,E,29.9,286.1,021117,2.4,E,A*3C
$GLGSV,3,1,10,74,23,324,16,66,26,032,23,82,54,074,19,73,25,264,25*66
$GLGSV,3,2,10,83,56,316,18,67,54,098,19,68,24,163,29,80,02,220,*64
$GLGSV,3,3,10,84,05,289,,81,08,098,*6E
$GPGSV,3,1,12,07,05,307,20,08,34,300,27,10,58,158,40,13,05,021,23*74
$GPGSV,3,2,12,15,15,049,32,16,46,217,36,18,57,085,19,20,06,043,27*7B
$GPGSV,3,3,12,26,23,192,34,27,73,295,23,21,36,073,,30,03,334,*7A
$BDGSV,2,1,05,205,21,130,20,206,28,050,19,209,37,081,11,202,06,108,*60
$BDGSV,2,2,05,213,,,*5D
$GPGGA,070612.0,4949.490189,N,01812.419679,E,1,08,1.0,235.0,M,43.0,M,,*57
$GNGNS,070612.0,4949.490189,N,01812.419679,E,AA,10,1.0,235.0,43.0,,*6A
$GPVTG,286.4,T,284.0,M,30.0,N,55.5,K,A*23
$GPGSA,A,2,08,10,13,15,16,20,26,27,,,,,1.3,1.0,0.8*33
$GNGSA,A,2,08,10,13,15,16,20,26,27,,,,,1.3,1.0,0.8*2D
$GNGSA,A,2,66,68,,,,,,,,,,,1.3,1.0,0.8*28
$BDGSA,A,2,,,,,,,,,,,,,1.3,1.0,0.8*29
$GPRMC,070612.0,A,4949.490189,N,01812.419679,E,30.0,286.4,021117,2.4,E,A*3D
$GLGSV,3,1,10,74,23,324,16,66,26,032,22,82,54,074,16,73,25,264,25*68
$GLGSV,3,2,10,83,56,316,19,67,54,098,19,68,24,163,28,80,02,220,*64
$GLGSV,3,3,10,84,05,289,,81,08,098,*6E
$GPGSV,3,1,12,07,05,307,22,08,34,300,21,10,58,158,40,15,15,049,31*7A
$GPGSV,3,2,12,16,46,217,37,18,57,085,20,20,06,043,25,26,23,192,35*77
$GPGSV,3,3,12,27,73,295,19,13,05,021,,21,36,073,,30,03,334,*7F
$BDGSV,2,1,05,205,21,130,20,206,28,050,16,209,37,081,14,202,06,108,*6A
$BDGSV,2,2,05,213,,,*5D
$GPGGA,070613.0,4949.492828,N,01812.408241,E,1,07,0.8,233.8,M,43.0,M,,*51
$GNGNS,070613.0,4949.492828,N,01812.408241,E,AA,09,0.8,233.8,43.0,,*6B
$GPVTG,287.1,T,284.7,M,29.6,N,54.9,K,A*23
$GPGSA,A,2,07,08,10,15,16,20,26,,,,,,1.2,0.8,0.9*3A
$GNGSA,A,2,07,08,10,15,16,20,26,,,,,,1.2,0.8,0.9*24
$GNGSA,A,2,66,68,,,,,,,,,,,1.2,0.8,0.9*21
$BDGSA,A,2,,,,,,,,,,,,,1.2,0.8,0.9*20
$GPRMC,070613.0,A,4949.492828,N,01812.408241,E,29.6,287.1,021117,2.4,E,A*39
$GLGSV,3,1,10,74,23,324,20,66,26,032,21,82,54,074,21,73,25,264,28*67
$GLGSV,3,2,10,83,56,316,19,67,54,098,24,68,24,163,35,80,02,220,*66
$GLGSV,3,3,10,84,05,289,,81,08,098,*6E
$GPGSV,3,1,12,07,05,307,26,08,34,300,27,10,58,158,38,15,15,049,33*75
$GPGSV,3,2,12,16,46,217,39,18,57,085,21,20,06,043,26,26,23,192,37*79
$GPGSV,3,3,12,27,73,295,26,13,05,021,,21,36,073,,30,03,334,*73
$BDGSV,2,1,05,205,21,130,23,206,28,050,20,209,37,081,18,202,06,108,*60
$BDGSV,2,2,05,213,,,*5D
$GPGGA,070614.0,4949.494598,N,01812.396960,E,1,09,0.8,232.9,M,43.0,M,,*50
$GNGNS,070614.0,4949.494598,N,01812.396960,E,AA,13,0.8,232.9,43.0,,*6F
$GPVTG,286.3,T,284.0,M,29.3,N,54.2,K,A*29
$GPGSA,A,2,07,08,10,15,16,18,20,26,27,,,,1.1,0.8,0.7*3B
$GNGSA,A,2,07,08,10,15,16,18,20,26,27,,,,1.1,0.8,0.7*25
$GNGSA,A,2,66,82,67,68,,,,,,,,,1.1,0.8,0.7*27
$BDGSA,A,2,,,,,,,,,,,,,1.1,0.8,0.7*2D
$GPRMC,070614.0,A,4949.494598,N,01812.396960,E,29.3,286.3,021117,2.4,E,A*30
$GLGSV,3,1,10,74,23,324,23,66,26,032,21,82,54,074,21,73,25,264,26*6A
$GLGSV,3,2,10,83,56,316,18,67,54,098,23,68,24,163,34,80,02,220,*61
$GLGSV,3,3,10,84,05,289,,81,08,098,*6E
$GPGSV,3,1,12,07,05,307,27,08,34,300,25,10,58,158,29,15,15,049,29*7D
$GPGSV,3,2,12,16,46,217,36,18,57,085,24,20,06,043,18,26,23,192,38*71
$GPGSV,3,3,12,27,73,295,24,13,05,021,,21,36,073,,30,03,334,*71
$BDGSV,2,1,05,205,21,130,23,206,28,050,20,209,37,081,17,202,06,108,*6F
$BDGSV,2,2,05,213,,,*5D
$GPGGA,070615.0,4949.495865,N,01812.385465,E,1,08,0.8,232.6,M,43.0,M,,*5B
$GNGNS,070615.0,4949.495865,N,01812.385465,E,AA,13,0.8,232.6,43.0,,*65
$GPVTG,285.6,T,283.2,M,29.0,N,53.7,K,A*2B
$GPGSA,A,2,07,08,10,15,16,18,26,27,,,,,1.1,0.8,0.8*36
$GNGSA,A,2,07,08,10,15,16,18,26,27,,,,,1.1,0.8,0.8*28
$GNGSA,A,2,74,66,82,67,68,,,,,,,,1.1,0.8,0.8*2B
$BDGSA,A,2,,,,,,,,,,,,,1.1,0.8,0.8*22
$GPRMC,070615.0,A,4949.495865,N,01812.385465,E,29.0,285.6,021117,2.4,E,A*30
$GLGSV,3,1,10,74,23,324,18,66,26,032,20,82,54,074,22,73,25,264,24*62
$GLGSV,3,2,10,83,56,316,18,67,54,098,24,68,24,163,34,80,02,220,*66
$GLGSV,3,3,10,84,05,289,,81,08,098,*6E
$GPGSV,3,1,12,07,05,307,23,08,34,300,25,10,58,158,28,13,05,021,18*73
$GPGSV,3,2,12,15,15,049,27,16,46,217,37,18,57,085,21,20,06,043,18*79
$GPGSV,3,3,12,21,36,073,23,26,23,192,35,27,73,295,23,30,03,334,*7A
$BDGSV,2,1,05,205,21,130,23,206,28,050,20,209,37,081,20,202,06,108,*6B
$BDGSV,2,2,05,213,,,*5D
$GPGGA,070616.0,4949.497855,N,01812.373460,E,1,09,0.8,232.0,M,43.0,M,,*52
$GNGNS,070616.0,4949.497855,N,01812.373460,E,AA,12,0.8,232.0,43.0,,*6C
$GPVTG,284.8,T,282.4,M,29.4,N,54.4,K,A*23
$GPGSA,A,2,07,08,10,15,16,18,21,26,27,,,,1.1,0.8,0.8*35
$GNGSA,A,2,07,08,10,15,16,18,21,26,27,,,,1.1,0.8,0.8*2B
$GNGSA,A,2,82,67,68,,,,,,,,,,1.1,0.8,0.8*28
$BDGSA,A,2,209,,,,,,,,,,,,1.1,0.8,0.8*19
$GPRMC,070616.0,A,4949.497855,N,01812.373460,E,29.4,284.8,021117,2.4,E,A*35
$GLGSV,3,1,10,74,23,324,18,66,26,032,19,82,54,074,20,73,25,264,24*6A
$GLGSV,3,2,10,83,56,316,18,67,54,098,27,68,24,163,33,80,02,220,*62
$GLGSV,3,3,10,84,05,289,,81,08,098,*6E
$GPGSV,3,1,12,07,05,307,16,08,34,300,28,10,58,158,28,13,05,021,18*78
$GPGSV,3,2,12,15,15,049,23,16,46,217,39,18,57,085,20,20,06,043,18*72
$GPGSV,3,3,12,21,36,073,22,26,23,192,35,27,73,295,24,30,03,334,14*79
$BDGSV,2,1,05,205,21,130,20,206,28,050,13,209,37,081,19,202,06,108,*62
$BDGSV,2,2,05,213,,,*5D
$GPGGA,070617.0,4949.500085,N,01812.361765,E,1,07,1.0,233.2,M,43.0,M,,*58
$GNGNS,070617.0,4949.500085,N,01812.361765,E,AA,09,1.0,233.2,43.0,,*62
$GPVTG,286.5,T,284.2,M,29.6,N,54.8,K,A*22
$GPGSA,A,2,08,10,15,16,21,26,27,,,,,,1.3,1.0,0.8*30
$GNGSA,A,2,08,10,15,16,21,26,27,,,,,,1.3,1.0,0.8*2E
$GNGSA,A,2,67,68,,,,,,,,,,,1.3,1.0,0.8*29
$BDGSA,A,2,,,,,,,,,,,,,1.3,1.0,0.8*29
$GPRMC,070617.0,A,4949.500085,N,01812.361765,E,29.6,286.5,021117,2.4,E,A*36
$GLGSV,3,1,10,74,23,324,18,66,26,032,19,82,54,074,21,73,25,264,24*6B
$GLGSV,3,2,10,80,02,220,19,83,56,316,18,67,54,098,25,68,24,163,33*68
$GLGSV,3,3,10,84,05,289,,81,08,098,*6E
$GPGSV,3,1,12,07,05,307,18,08,34,300,28,10,58,158,30,13,05,021,17*70
$GPGSV,3,2,12,15,15,049,19,16,46,217,37,18,57,085,17,20,06,043,16*7F
$GPGSV,3,3,12,21,36,073,24,26,23,192,35,27,73,295,20,30,03,334,14*7B
$BDGSV,2,1,05,205,21,130,20,206,28,050,13,209,37,081,19,202,06,108,*62
$BDGSV,2,2,05,213,,,*5D
$GPGGA,070618.0,4949.502745,N,01812.349653,E,1,05,1.1,233.2,M,43.0,M,,*53
$GNGNS,070618.0,4949.502745,N,01812.349653,E,AA,08,1.1,233.2,43.0,,*6A
$GPVTG,287.2,T,284.9,M,29.3,N,54.2,K,A*20
$GPGSA,A,2,08,10,16,21,26,,,,,,,,1.5,1.1,0.9*37
$GNGSA,A,2,08,10,16,21,26,,,,,,,,1.5,1.1,0.9*29
$GNGSA,A,2,82,67,68,,,,,,,,,,1.5,1.1,0.9*25
$BDGSA,A,2,,,,,,,,,,,,,1.5,1.1,0.9*2F
$GPRMC,070618.0,A,4949.502745,N,01812.349653,E,29.3,287.2,021117,2.4,E,A*3D
$GLGSV,3,1,10,74,23,324,18,66,26,032,24,82,54,074,19,73,25,264,23*69
$GLGSV,3,2,10,80,02,220,19,83,56,316,12,67,54,098,24,68,24,163,31*61
$GLGSV,3,3,10,84,05,289,,81,08,098,*6E
$GPGSV,3,1,12,07,05,307,18,08,34,300,25,10,58,158,31,13,05,021,28*70
$GPGSV,3,2,12,15,15,049,26,16,45,217,37,18,57,085,17,20,06,043,18*7E
$GPGSV,3,3,12,21,36,073,18,26,23,192,35,27,73,295,25,30,03,334,14*71
$BDGSV,2,1,05,205,21,130,20,206,28,050,13,209,37,081,15,202,06,108,*6E
$BDGSV,2,2,05,213,,,*5D
$GPGGA,070619.0,4949.504983,N,01812.337818,E,1,07,1.0,232.3,M,43.0,M,,*5B
$GNGNS,070619.0,4949.504983,N,01812.337818,E,AA,10,1.0,232.3,43.0,,*69
$GPVTG,287.0,T,284.6,M,28.9,N,53.6,K,A*25
$GPGSA,A,2,08,10,13,15,16,26,27,,,,,,1.3,1.0,0.8*31
$GNGSA,A,2,08,10,13,15,16,26,27,,,,,,1.3,1.0,0.8*2F
$GNGSA,A,2,66,67,68,,,,,,,,,,1.3,1.0,0.8*29
$BDGSA,A,2,,,,,,,,,,,,,1.3,1.0,0.8*29
$GPRMC,070619.0,A,4949.504983,N,01812.337818,E,28.9,287.0,021117,2.4,E,A*3F
$GLGSV,3,1,10,74,23,324,17,66,26,032,24,82,54,074,20,73,25,264,23*6C
$GLGSV,3,2,10,80,02,220,19,83,56,316,19,67,54,098,24,68,24,163,32*69
$GLGSV,3,3,10,84,05,289,,81,08,098,*6E
$GPGSV,3,1,12,07,05,307,18,08,34,300,25,10,58,158,30,13,05,021,28*71
$GPGSV,3,2,12,15,15,049,26,16,45,217,39,18,57,085,21,20,06,043,31*7E
$GPGSV,3,3,12,21,36,073,20,26,23,192,34,27,73,295,24,30,03,334,*7F
$BDGSV,2,1,05,205,21,130,19,206,28,050,15,209,37,081,15,202,06,108,*62
$BDGSV,2,2,05,213,,,*5D
$GPGGA,070620.0,4949.507431,N,01812.325567,E,1,09,0.9,231.8,M,43.0,M,,*5E
$GNGNS,070620.0,4949.507431,N,01812.325567,E,AA,13,0.9,231.8,43.0,,*61
$GPVTG,288.3,T,285.9,M,29.0,N,53.8,K,A*21
$GPGSA,A,2,08,10,13,15,16,18,20,26,27,,,,1.2,0.9,0.7*3C
$GNGSA,A,2,08,10,13,15,16,18,20,26,27,,,,1.2,0.9,0.7*22
$GNGSA,A,2,66,82,67,68,,,,,,,,,1.2,0.9,0.7*25
$BDGSA,A,2,,,,,,,,,,,,,1.2,0.9,0.7*2F
$GPRMC,070620.0,A,4949.507431,N,01812.325567,E,29.0,288.3,021117,2.4,E,A*30
$GLGSV,3,1,10,74,23,324,21,66,26,032,25,82,54,074,20,73,25,264,23*68
$GLGSV,3,2,10,80,02,220,19,83,56,316,19,67,54,098,23,68,24,163,34*68
$GLGSV,3,3,10,84,05,289,,81,08,098,*6E
$GPGSV,4,1,13,08,34,300,23,10,58,158,31,13,05,021,23,15,15,049,27*7C
$GPGSV,4,2,13,16,45,217,39,18,57,085,19,20,06,043,27,21,36,073,23*7E
$GPGSV,4,3,13,26,23,192,35,27,73,295,23,30,03,334,18,38,,,34*4A
$GPGSV,4,4,13,07,05,307,*4D
$BDGSV,2,1,05,205,21,130,19,206,28,050,19,209,37,081,15,202,06,108,*6E
$BDGSV,2,2,05,213,,,*5D
$GPGGA,070621.0,4949.509579,N,01812.313621,E,1,09,0.7,231.1,M,43.0,M,,*5F
$GNGNS,070621.0,4949.509579,N,01812.313621,E,AA,14,0.7,231.1,43.0,,*67
$GPVTG,288.0,T,285.6,M,28.8,N,53.3,K,A*2F
$GPGSA,A,2,08,10,13,15,16,20,21,26,27,,,,1.1,0.7,0.8*34
$GNGSA,A,2,08,10,13,15,16,20,21,26,27,,,,1.1,0.7,0.8*2A
$GNGSA,A,2,74,66,82,67,68,,,,,,,,1.1,0.7,0.8*24
$BDGSA,A,2,,,,,,,,,,,,,1.1,0.7,0.8*2D
$GPRMC,070621.0,A,4949.509579,N,01812.313621,E,28.8,288.0,021117,2.4,E,A*3C
$GLGSV,3,1,10,74,23,324,21,66,26,032,21,82,54,074,20,73,25,264,29*66
$GLGSV,3,2,10,80,02,220,19,83,56,316,16,67,54,098,24,68,24,163,33*67
$GLGSV,3,3,10,84,05,289,,81,08,098,*6E
$GPGSV,4,1,13,08,34,300,21,10,58,158,34,13,05,021,21,15,15,049,23*7D
$GPGSV,4,2,13,16,45,217,38,18,57,085,19,20,06,043,21,21,36,073,22*78
$GPGSV,4,3,13,26,23,192,35,27,73,295,22,30,03,334,19,38,,,34*4A
$GPGSV,4,4,13,07,05,307,*4D
$BDGSV,2,1,05,205,21,130,19,206,28,050,23,209,37,081,15,202,06,108,*67
$BDGSV,2,2,05,213,,,*5D
$GPGGA,070622.0,4949.512040,N,01812.302026,E,1,09,0.9,230.5,M,43.0,M,,*53
$GNGNS,070622.0,4949.512040,N,01812.302026,E,AA,12,0.9,230.5,43.0,,*6D
$GPVTG,289.1,T,286.7,M,28.4,N,52.5,K,A*26
$GPGSA,A,2,08,10,13,15,16,20,21,26,27,,,,1.2,0.9,0.8*39
$GNGSA,A,2,08,10,13,15,16,20,21,26,27,,,,1.2,0.9,0.8*27
$GNGSA,A,2,66,67,68,,,,,,,,,,1.2,0.9,0.8*20
$BDGSA,A,2,,,,,,,,,,,,,1.2,0.9,0.8*20
$GPRMC,070622.0,A,4949.512040,N,01812.302026,E,28.4,289.1,021117,2.4,E,A*37
$GLGSV,3,1,10,74,23,324,17,66,26,032,23,82,54,074,18,73,25,264,35*67
$GLGSV,3,2,10,80,02,220,19,83,56,316,18,67,54,098,26,68,24,163,34*6C
$GLGSV,3,3,10,84,05,289,,81,08,098,*6E
$GPGSV,4,1,13,07,05,307,25,08,34,300,26,10,58,158,38,13,05,021,19*70
$GPGSV,4,2,13,15,15,049,31,16,45,217,40,18,57,085,15,20,06,043,22*75
$GPGSV,4,3,13,21,36,073,30,26,23,192,39,27,73,295,24,30,03,334,21*76
$GPGSV,4,4,13,38,,,36*75
$BDGSV,2,1,05,205,21,130,24,206,28,050,24,209,37,081,13,202,06,108,*68
$BDGSV,2,2,05,213,,,*5D
$GPGGA,070623.0,4949.513688,N,01812.290469,E,1,09,0.8,230.1,M,43.0,M,,*51
$GNGNS,070623.0,4949.513688,N,01812.290469,E,AA,12,0.8,230.1,43.0,,*6F
$GPVTG,288.2,T,285.9,M,28.2,N,52.1,K,A*2B
$GPGSA,A,2,07,08,10,15,16,20,21,26,27,,,,1.1,0.8,0.8*3E
$GNGSA,A,2,07,08,10,15,16,20,21,26,27,,,,1.1,0.8,0.8*20
$GNGSA,A,2,66,67,68,,,,,,,,,,1.1,0.8,0.8*22
$BDGSA,A,2,,,,,,,,,,,,,1.1,0.8,0.8*22
$GPRMC,070623.0,A,4949.513688,N,01812.290469,E,28.2,288.2,021117,2.4,E,A*34
$GLGSV,3,1,10,74,23,324,18,66,26,032,24,82,54,074,18,73,25,264,32*68
$GLGSV,3,2,10,80,02,220,19,83,56,316,18,67,54,098,23,68,24,163,29*65
$GLGSV,3,3,10,84,05,289,,81,08,098,*6E
$GPGSV,4,1,14,07,05,307,25,08,34,300,27,10,58,158,33,15,15,049,25*7B
$GPGSV,4,2,14,16,45,217,41,18,57,085,15,20,06,043,22,21,36,073,27*7B
$GPGSV,4,3,14,26,23,192,36,27,73,295,25,30,03,334,25,33,,,32*4B
$GPGSV,4,4,14,38,,,35,13,05,021,*45
$BDGSV,2,1,05,205,21,130,27,206,28,050,22,209,37,081,16,202,06,108,*68
$BDGSV,2,2,05,213,,,*5D
$GPGGA,070624.0,4949.517154,N,01812.277404,E,1,08,0.8,229.2,M,43.0,M,,*5C
$GNGNS,070624.0,4949.517154,N,01812.277404,E,AA,11,0.8,229.2,43.0,,*60
$GPVTG,289.1,T,286.8,M,27.9,N,51.7,K,A*2A
$GPGSA,A,2,07,08,10,15,16,21,26,27,,,,,1.1,0.8,0.8*3C
$GNGSA,A,2,07,08,10,15,16,21,26,27,,,,,1.1,0.8,0.8*22
$GNGSA,A,2,66,67,68,,,,,,,,,,1.1,0.8,0.8*22
$BDGSA,A,2,,,,,,,,,,,,,1.1,0.8,0.8*22
$GPRMC,070624.0,A,4949.517154,N,01812.277404,E,27.9,289.1,021117,2.4,E,A*35
$GLGSV,3,1,10,74,23,324,18,66,26,032,27,82,54,074,18,73,25,264,33*6A
$GLGSV,3,2,10,80,02,220,19,83,56,316,17,67,54,098,23,68,24,163,31*63
$GLGSV,3,3,10,84,05,289,,81,08,098,*6E
$GPGSV,4,1,14,08,34,300,31,10,58,158,31,15,15,049,28,16,45,217,42*76
$GPGSV,4,2,14,18,57,085,16,20,06,043,19,21,36,073,24,26,23,192,36*7E
$GPGSV,4,3,14,27,73,295,26,30,03,334,25,33,,,32,38,,,35*7F
$GPGSV,4,4,14,07,05,307,,13,05,021,*7E
$BDGSV,2,1,05,205,21,130,27,206,28,050,24,209,37,081,17,202,06,108,*6F
$BDGSV,2,2,05,213,,,*5D
$GPGGA,070625.0,4949.520487,N,01812.265822,E,1,07,0.9,229.6,M,43.0,M,,*53
$GNGNS,070625.0,4949.520487,N,01812.265822,E,AA,10,0.9,229.6,43.0,,*61
$GPVTG,290.4,T,288.1,M,26.9,N,49.8,K,A*27
$GPGSA,A,2,08,10,15,16,21,26,27,,,,,,1.3,0.9,0.8*38
$GNGSA,A,2,08,10,15,16,21,26,27,,,,,,1.3,0.9,0.8*26
$GNGSA,A,2,66,67,68,,,,,,,,,,1.3,0.9,0.8*21
$BDGSA,A,2,,,,,,,,,,,,,1.3,0.9,0.8*21
$GPRMC,070625.0,A,4949.520487,N,01812.265822,E,26.9,290.4,021117,2.4,E,A*3C
$GLGSV,3,1,10,74,23,324,18,66,26,032,25,82,54,074,14,73,25,264,33*64
$GLGSV,3,2,10,80,02,220,19,83,56,316,17,67,54,098,24,68,24,163,32*67
$GLGSV,3,3,10,84,05,289,,81,08,098,*6E
$GPGSV,4,1,14,08,34,300,32,10,58,158,32,13,05,021,21,15,15,049,26*7B
$GPGSV,4,2,14,16,45,217,42,18,57,085,21,20,06,043,17,21,36,073,24*7A
$GPGSV,4,3,14,26,23,192,36,27,73,295,28,30,03,334,24,33,,,32*47
$GPGSV,4,4,14,38,,,33,07,05,307,*41
$BDGSV,2,1,05,205,21,130,27,206,28,050,24,209,37,081,17,202,06,108,*6F
$BDGSV,2,2,05,213,,,*5D
$GPGGA,070626.0,4949.523191,N,01812.255018,E,1,09,0.9,229.8,M,43.0,M,,*53
$GNGNS,070626.0,4949.523191,N,01812.255018,E,AA,12,0.9,229.8,43.0,,*6D
$GPVTG,289.3,T,287.0,M,27.2,N,50.3,K,A*2F
$GPGSA,A,2,08,10,13,15,16,18,21,26,27,,,,1.2,0.9,0.8*32
$GNGSA,A,2,08,10,13,15,16,18,21,26,27,,,,1.2,0.9,0.8*2C
$GNGSA,A,2,66,67,68,,,,,,,,,,1.2,0.9,0.8*20
$BDGSA,A,2,,,,,,,,,,,,,1.2,0.9,0.8*20
$GPRMC,070626.0,A,4949.523191,N,01812.255018,E,27.2,289.3,021117,2.4,E,A*39
$GLGSV,3,1,10,74,23,324,24,66,26,032,22,82,54,074,19,73,25,264,31*63
$GLGSV,3,2,10,80,02,220,14,83,56,316,20,67,54,098,19,68,24,163,33*61
$GLGSV,3,3,10,84,05,289,,81,08,098,*6E
$GPGSV,4,1,14,08,34,300,33,10,58,158,31,13,05,021,21,15,15,049,27*78
$GPGSV,4,2,14,16,45,217,42,18,57,085,19,20,06,043,19,21,36,073,27*7C
$GPGSV,4,3,14,26,23,192,31,27,73,295,29,30,03,334,27,33,,,32*42
$GPGSV,4,4,14,38,,,33,07,05,307,*41
$BDGSV,2,1,05,205,21,130,27,206,28,050,25,209,37,081,17,202,06,108,*6E
$BDGSV,2,2,05,213,,,*5D
$GPGGA,070627.0,4949.525629,N,01812.244115,E,1,08,0.8,229.6,M,43.0,M,,*52
$GNGNS,070627.0,4949.525629,N,01812.244115,E,AA,11,0.8,229.6,43.0,,*6E
$GPVTG,289.8,T,287.4,M,26.9,N,49.9,K,A*28
$GPGSA,A,2,08,10,13,15,16,21,26,27,,,,,1.2,0.8,0.8*3A
$GNGSA,A,2,08,10,13,15,16,21,26,27,,,,,1.2,0.8,0.8*24
$GNGSA,A,2,74,66,68,,,,,,,,,,1.2,0.8,0.8*23
$BDGSA,A,2,,,,,,,,,,,,,1.2,0.8,0.8*21
$GPRMC,070627.0,A,4949.525629,N,01812.244115,E,26.9,289.8,021117,2.4,E,A*37
$GLGSV,3,1,10,74,23,324,20,66,26,032,23,82,54,074,19,73,25,264,33*64
$GLGSV,3,2,10,80,02,220,13,83,56,316,17,67,54,098,19,68,24,163,33*62
$GLGSV,3,3,10,84,05,289,,81,08,098,*6E
$GPGSV,4,1,14,07,05,307,21,08,34,300,31,10,58,158,30,13,05,021,20*77
$GPGSV,4,2,14,15,15,049,24,16,45,217,41,18,57,085,23,20,06,043,21*71
$GPGSV,4,3,14,21,36,073,27,26,23,192,33,27,73,295,28,30,03,334,26*76
$GPGSV,4,4,14,33,,,32,38,,,31*74
$BDGSV,2,1,05,205,21,130,26,206,28,050,25,209,37,081,17,202,06,108,*6F
$BDGSV,2,2,05,213,,,*5D
$GPGGA,070628.0,4949.527981,N,01812.234564,E,1,11,0.7,230.2,M,43.0,M,,*5C
$GNGNS,070628.0,4949.527981,N,01812.234564,E,AA,14,0.7,230.2,43.0,,*6D
$GPVTG,290.2,T,287.8,M,26.5,N,49.1,K,A*22
$GPGSA,A,2,07,08,10,13,15,16,18,20,21,26,27,,1.0,0.7,0.7*34
$GNGSA,A,2,07,08,10,13,15,16,18,20,21,26,27,,1.0,0.7,0.7*2A
$GNGSA,A,2,74,66,68,,,,,,,,,,1.0,0.7,0.7*21
$BDGSA,A,2,,,,,,,,,,,,,1.0,0.7,0.7*23
$GPRMC,070628.0,A,4949.527981,N,01812.234564,E,26.5,290.2,021117,2.4,E,A*3C
$GLGSV,3,1,10,74,23,324,19,66,26,032,24,82,54,074,19,73,25,264,34*6E
$GLGSV,3,2,10,83,56,316,21,67,54,098,19,68,24,163,33,80,02,220,*65
$GLGSV,3,3,10,84,05,289,,81,08,098,*6E
$GPGSV,4,1,14,07,05,307,21,08,34,300,30,10,58,158,31,13,05,021,19*7D
$GPGSV,4,2,14,15,15,049,26,16,45,217,41,18,57,085,21,20,06,043,22*72
$GPGSV,4,3,14,21,36,073,28,26,23,192,33,27,73,295,26,30,03,334,27*76
$GPGSV,4,4,14,33,,,32,38,,,32*77
$BDGSV,2,1,05,205,21,130,26,206,28,050,23,209,37,081,13,202,06,108,*6D
$BDGSV,2,2,05,213,,,*5D
$GPGGA,070629.0,4949.530681,N,01812.223727,E,1,10,0.7,230.1,M,43.0,M,,*55
$GNGNS,070629.0,4949.530681,N,01812.223727,E,AA,13,0.7,230.1,43.0,,*62
$GPVTG,290.0,T,287.6,M,26.3,N,48.7,K,A*2F
$GPGSA,A,2,07,08,10,15,16,18,20,21,26,27,,,1.0,0.7,0.7*36
$GNGSA,A,2,07,08,10,15,16,18,20,21,26,27,,,1.0,0.7,0.7*28
$GNGSA,A,2,66,83,68,,,,,,,,,,1.0,0.7,0.7*29
$BDGSA,A,2,,,,,,,,,,,,,1.0,0.7,0.7*23
$GPRMC,070629.0,A,4949.530681,N,01812.223727,E,26.3,290.0,021117,2.4,E,A*33
$GLGSV,3,1,10,74,23,324,19,66,26,032,20,82,54,074,16,73,25,264,30*61
$GLGSV,3,2,10,83,56,316,24,67,54,098,13,68,24,163,34,80,02,220,*6D
$GLGSV,3,3,10,84,05,289,,81,08,098,*6E
$GPGSV,4,1,14,07,05,307,25,08,34,300,26,10,58,158,29,13,05,021,19*77
$GPGSV,4,2,14,15,15,049,23,16,45,217,40,18,57,085,21,20,06,043,19*7E
$GPGSV,4,3,14,21,36,073,25,26,23,192,33,27,73,295,26,30,03,334,20*7C
$GPGSV,4,4,14,33,,,32,38,,,31*74
$BDGSV,2,1,05,205,21,130,26,206,28,050,25,209,37,081,13,202,06,108,*6B
$BDGSV,2,2,05,213,,,*5D
$GPGGA,070630.0,4949.533199,N,01812.214050,E,1,09,0.8,230.7,M,43.0,M,,*52
$GNGNS,070630.0,4949.533199,N,01812.214050,E,AA,11,0.8,230.7,43.0,,*6F
$GPVTG,290.7,T,288.3,M,25.7,N,47.6,K,A*2B
$GPGSA,A,2,07,08,10,15,16,18,21,26,27,,,,1.1,0.8,0.8*35
$GNGSA,A,2,07,08,10,15,16,18,21,26,27,,,,1.1,0.8,0.8*2B
$GNGSA,A,2,83,68,,,,,,,,,,,1.1,0.8,0.8*28
$BDGSA,A,2,,,,,,,,,,,,,1.1,0.8,0.8*22
$GPRMC,070630.0,A,4949.533199,N,01812.214050,E,25.7,290.7,021117,2.4,E,A*35
$GLGSV,3,1,10,74,23,324,19,66,26,032,24,82,54,074,20,73,25,264,32*62
$GLGSV,3,2,10,80,02,220,17,83,56,316,24,67,54,098,16,68,24,163,34*6E
$GLGSV,3,3,10,84,05,289,,81,08,098,*6E
$GPGSV,4,1,14,07,05,307,24,08,34,300,30,10,58,158,30,13,05,021,21*72
$GPGSV,4,2,14,15,15,049,23,16,45,217,42,18,57,085,21,20,06,043,26*70
$GPGSV,4,3,14,21,36,073,26,26,23,192,35,27,73,295,27,30,03,334,20*78
$GPGSV,4,4,14,33,,,32,38,,,32*77
$BDGSV,2,1,05,205,21,130,27,206,28,050,26,209,37,081,13,202,06,108,*69
$BDGSV,2,2,05,213,,,*5D
$GPGGA,070631.0,4949.535642,N,01812.204308,E,1,11,0.7,231.6,M,43.0,M,,*5D
$GNGNS,070631.0,4949.535642,N,01812.204308,E,AA,14,0.7,231.6,43.0,,*6C
$GPVTG,289.8,T,287.4,M,25.6,N,47.3,K,A*20
$GPGSA,A,2,07,08,10,13,15,16,18,20,21,26,27,,1.0,0.7,0.7*34
$GNGSA,A,2,07,08,10,13,15,16,18,20,21,26,27,,1.0,0.7,0.7*2A
$GNGSA,A,2,66,83,68,,,,,,,,,,1.0,0.7,0.7*29
$BDGSA,A,2,,,,,,,,,,,,,1.0,0.7,0.7*23
$GPRMC,070631.0,A,4949.535642,N,01812.204308,E,25.6,289.8,021117,2.4,E,A*3A
$GLGSV,3,1,10,74,23,324,22,66,26,032,28,82,54,074,23,73,25,264,34*63
$GLGSV,3,2,10,80,02,220,17,83,56,316,24,67,54,098,16,68,24,163,35*6F
$GLGSV,3,3,10,84,05,289,,81,08,098,*6E
$GPGSV,4,1,14,07,05,307,31,08,34,300,31,10,58,158,30,13,05,021,23*75
$GPGSV,4,2,14,15,15,049,23,16,45,217,43,18,57,085,24,20,06,043,23*71
$GPGSV,4,3,14,21,36,073,26,26,23,192,37,27,73,295,27,30,03,334,22*78
$GPGSV,4,4,14,33,,,32,38,,,33*76
$BDGSV,2,1,05,205,21,130,27,206,28,050,27,209,37,081,13,202,06,108,*68
$BDGSV,2,2,05,213,,,*5D
$GPGGA,070632.0,4949.538619,N,01812.193821,E,1,11,0.7,231.9,M,43.0,M,,*5F
$GNGNS,070632.0,4949.538619,N,01812.193821,E,AA,16,0.7,231.9,43.0,,*6C
$GPVTG,290.4,T,288.1,M,25.5,N,47.2,K,A*2C
$GPGSA,A,2,07,08,10,13,15,16,18,20,21,26,27,,1.0,0.7,0.7*34
$GNGSA,A,2,07,08,10,13,15,16,18,20,21,26,27,,1.0,0.7,0.7*2A
$GNGSA,A,2,74,66,82,83,68,,,,,,,,1.0,0.7,0.7*20
$BDGSA,A,2,,,,,,,,,,,,,1.0,0.7,0.7*23
$GPRMC,070632.0,A,4949.538619,N,01812.193821,E,25.5,290.4,021117,2.4,E,A*30
$GLGSV,3,1,10,74,23,324,18,66,26,032,28,82,54,074,25,73,25,264,33*6B
$GLGSV,3,2,10,80,02,220,15,83,56,316,21,67,54,098,16,68,24,163,33*6E
$GLGSV,3,3,10,84,05,289,,81,08,098,*6E
$GPGSV,4,1,14,07,05,307,29,08,34,300,29,10,58,158,29,13,05,021,21*7F
$GPGSV,4,2,14,15,15,049,22,16,45,217,43,18,57,085,26,20,06,043,19*7B
$GPGSV,4,3,14,21,36,073,20,26,23,192,37,27,73,295,26,30,03,334,21*7C
$GPGSV,4,4,14,33,,,32,38,,,32*77
$BDGSV,2,1,05,205,21,130,26,206,28,050,26,209,37,081,13,202,06,108,*68
$BDGSV,2,2,05,213,,,*5D
$GPGGA,070633.0,4949.541026,N,01812.183655,E,1,09,0.8,232.5,M,43.0,M,,*5F
$GNGNS,070633.0,4949.541026,N,01812.183655,E,AA,13,0.8,232.5,43.0,,*60
$GPVTG,290.8,T,288.4,M,25.0,N,46.3,K,A*20
$GPGSA,A,2,07,08,10,13,15,16,18,26,27,,,,1.1,0.8,0.7*3B
$GNGSA,A,2,07,08,10,13,15,16,18,26,27,,,,1.1,0.8,0.7*25
$GNGSA,A,2,66,82,83,68,,,,,,,,,1.1,0.8,0.7*2D
$BDGSA,A,2,,,,,,,,,,,,,1.1,0.8,0.7*2D
$GPRMC,070633.0,A,4949.541026,N,01812.183655,E,25.0,290.8,021117,2.4,E,A*30
$GLGSV,3,1,10,74,23,324,20,66,26,032,27,82,54,074,27,73,25,264,32*6C
$GLGSV,3,2,10,80,02,220,15,83,56,316,24,67,54,098,16,68,24,163,33*6B
$GLGSV,3,3,10,84,05,289,,81,08,098,*6E
$GPGSV,4,1,14,07,05,307,28,08,34,300,30,10,58,158,29,13,05,021,24*73
$GPGSV,4,2,14,15,15,049,25,16,45,217,43,18,57,085,27,20,06,043,21*76
$GPGSV,4,3,14,21,36,073,19,26,23,192,37,27,73,295,27,30,03,334,25*73
$GPGSV,4,4,14,33,,,32,38,,,34*71
$BDGSV,2,1,05,205,21,130,25,206,28,050,26,209,37,081,16,202,06,108,*6E
$BDGSV,2,2,05,213,,,*5D
$GPGGA,070634.0,4949.543811,N,01812.173409,E,1,10,0.7,232.4,M,43.0,M,,*54
$GNGNS,070634.0,4949.543811,N,01812.173409,E,AA,14,0.7,232.4,43.0,,*64
$GPVTG,290.3,T,288.0,M,25.0,N,46.4,K,A*28
$GPGSA,A,2,07,08,10,13,15,16,18,20,26,27,,,1.0,0.7,0.7*37
$GNGSA,A,2,07,08,10,13,15,16,18,20,26,27,,,1.0,0.7,0.7*29
$GNGSA,A,2,66,82,83,68,,,,,,,,,1.0,0.7,0.7*23
$BDGSA,A,2,,,,,,,,,,,,,1.0,0.7,0.7*23
$GPRMC,070634.0,A,4949.543811,N,01812.173409,E,25.0,290.3,021117,2.4,E,A*36
$GLGSV,3,1,10,74,23,324,20,66,26,032,26,82,54,074,27,73,25,264,32*6D
$GLGSV,3,2,10,80,02,220,16,83,56,316,27,67,54,098,19,68,24,163,32*65
$GLGSV,3,3,10,84,05,289,,81,08,098,*6E
$GPGSV,4,1,14,07,05,307,29,08,34,300,31,10,58,158,29,13,05,021,25*72
$GPGSV,4,2,14,15,15,049,26,16,45,217,43,18,57,085,26,20,06,043,21*74
$GPGSV,4,3,14,21,36,073,21,26,23,192,38,27,73,295,27,30,03,334,28*7A
$GPGSV,4,4,14,33,,,32,38,,,33*76
$BDGSV,2,1,05,205,21,130,24,206,28,050,25,209,37,081,18,202,06,108,*62
$BDGSV,2,2,05,213,,,*5D
$GPGGA,070635.0,4949.546267,N,01812.164067,E,1,11,0.7,233.1,M,43.0,M,,*54
$GNGNS,070635.0,4949.546267,N,01812.164067,E,AA,15,0.7,233.1,43.0,,*64
$GPVTG,290.0,T,287.6,M,25.0,N,46.3,K,A*25
$GPGSA,A,2,07,08,10,13,15,16,18,20,21,26,27,,1.0,0.7,0.7*34
$GNGSA,A,2,07,08,10,13,15,16,18,20,21,26,27,,1.0,0.7,0.7*2A
$GNGSA,A,2,66,82,83,68,,,,,,,,,1.0,0.7,0.7*23
$BDGSA,A,2,,,,,,,,,,,,,1.0,0.7,0.7*23
$GPRMC,070635.0,A,4949.546267,N,01812.164067,E,25.0,290.0,021117,2.4,E,A*30
$GLGSV,3,1,10,74,23,324,20,66,26,032,23,82,54,074,26,73,25,264,32*69
$GLGSV,3,2,10,80,02,220,17,83,56,316,20,67,54,098,17,68,24,163,32*6D
$GLGSV,3,3,10,84,05,289,,81,08,098,*6E
$GPGSV,4,1,14,07,05,307,30,08,34,300,30,10,58,158,27,13,05,021,27*77
$GPGSV,4,2,14,15,15,049,26,16,45,217,42,18,57,085,26,20,06,043,21*75
$GPGSV,4,3,14,21,36,073,21,26,23,192,39,27,73,295,26,30,03,334,28*7A
$GPGSV,4,4,14,33,,,32,38,,,33*76
$BDGSV,2,1,05,205,21,130,25,206,28,050,26,209,37,081,18,202,06,108,*60
$BDGSV,2,2,05,213,,,*5D
$GPGGA,070636.0,4949.548892,N,01812.154908,E,1,11,0.7,233.5,M,43.0,M,,*5E
$GNGNS,070636.0,4949.548892,N,01812.154908,E,AA,16,0.7,233.5,43.0,,*6D
$GPVTG,291.6,T,289.3,M,24.1,N,44.6,K,A*2E
$GPGSA,A,2,07,08,10,13,15,16,18,20,21,26,27,,1.0,0.7,0.7*34
$GNGSA,A,2,07,08,10,13,15,16,18,20,21,26,27,,1.0,0.7,0.7*2A
$GNGSA,A,2,74,66,82,83,68,,,,,,,,1.0,0.7,0.7*20
$BDGSA,A,2,,,,,,,,,,,,,1.0,0.7,0.7*23
$GPRMC,070636.0,A,4949.548892,N,01812.154908,E,24.1,291.6,021117,2.4,E,A*39
$GLGSV,3,1,10,74,23,324,20,66,26,032,23,82,54,074,18,73,25,264,29*6E
$GLGSV,3,2,10,80,02,220,16,83,56,316,23,67,54,098,22,68,24,163,29*63
$GLGSV,3,3,10,84,05,289,,81,08,098,*6E
$GPGSV,4,1,14,07,05,307,26,08,34,300,25,10,58,158,35,13,05,021,33*72
$GPGSV,4,2,14,15,15,049,34,16,45,217,40,18,57,085,19,20,06,043,30*78
$GPGSV,4,3,14,21,36,073,26,26,23,192,38,27,73,295,22,30,03,334,29*79
$GPGSV,4,4,14,33,,,32,38,,,32*77
$BDGSV,2,1,05,205,21,130,25,206,28,050,23,209,37,081,16,202,06,108,*6B
$BDGSV,2,2,05,213,00,092,*66
$GPGGA,070637.0,4949.550997,N,01812.144189,E,1,10,0.7,234.7,M,43.0,M,,*56
$GNGNS,070637.0,4949.550997,N,01812.144189,E,AA,13,0.7,234.7,43.0,,*61
$GPVTG,291.5,T,289.1,M,24.6,N,45.5,K,A*2A
$GPGSA,A,2,07,08,10,13,15,16,20,21,26,27,,,1.0,0.7,0.7*3D
$GNGSA,A,2,07,08,10,13,15,16,20,21,26,27,,,1.0,0.7,0.7*23
$GNGSA,A,2,83,67,68,,,,,,,,,,1.0,0.7,0.7*28
$BDGSA,A,2,,,,,,,,,,,,,1.0,0.7,0.7*23
$GPRMC,070637.0,A,4949.550997,N,01812.144189,E,24.6,291.5,021117,2.4,E,A*31
$GLGSV,3,1,10,74,23,324,16,66,26,032,17,82,54,074,18,73,25,264,27*62
$GLGSV,3,2,10,80,02,220,16,83,56,316,24,67,54,098,24,68,24,163,28*63
$GLGSV,3,3,10,84,05,289,,81,08,098,*6E
$GPGSV,4,1,14,07,05,307,25,08,34,300,22,10,58,158,36,13,05,021,32*74
$GPGSV,4,2,14,15,15,049,34,16,45,217,40,18,57,085,19,20,06,043,30*78
$GPGSV,4,3,14,21,36,073,27,26,23,192,39,27,73,295,20,30,03,334,29*7B
$GPGSV,4,4,14,33,,,32,38,,,33*76
$BDGSV,2,1,05,205,21,130,25,206,28,050,23,209,37,081,20,202,06,108,*6E
$BDGSV,2,2,05,213,00,092,*66
$GPGGA,070638.0,4949.553297,N,01812.133635,E,1,10,0.7,235.2,M,43.0,M,,*55
$GNGNS,070638.0,4949.553297,N,01812.133635,E,AA,13,0.7,235.2,43.0,,*62
$GPVTG,291.5,T,289.1,M,25.2,N,46.7,K,A*2E
$GPGSA,A,2,07,08,10,13,15,16,20,21,26,27,,,1.0,0.7,0.7*3D
$GNGSA,A,2,07,08,10,13,15,16,20,21,26,27,,,1.0,0.7,0.7*23
$GNGSA,A,2,83,67,68,,,,,,,,,,1.0,0.7,0.7*28
$BDGSA,A,2,209,,,,,,,,,,,,1.0,0.7,0.7*18
$GPRMC,070638.0,A,4949.553297,N,01812.133635,E,25.2,291.5,021117,2.4,E,A*33
$GLGSV,3,1,10,74,23,324,16,66,26,032,16,82,54,074,17,73,25,264,28*63
$GLGSV,3,2,10,80,02,220,16,83,56,316,24,67,54,098,22,68,24,163,28*65
$GLGSV,3,3,10,84,05,289,,81,08,098,*6E
$GPGSV,4,1,14,07,05,307,28,08,34,300,23,10,58,158,35,13,05,021,32*7B
$GPGSV,4,2,14,15,15,049,34,16,45,217,40,18,57,085,19,20,06,043,28*71
$GPGSV,4,3,14,21,36,073,26,26,23,192,39,27,73,295,20,30,03,334,28*7B
$GPGSV,4,4,14,33,,,32,38,,,33*76
$BDGSV,2,1,05,205,21,130,21,206,28,050,21,209,37,081,20,202,06,108,*68
$BDGSV,2,2,05,213,00,092,*66
$GPGGA,070639.0,4949.555812,N,01812.123133,E,1,09,0.7,235.4,M,43.0,M,,*5B
$GNGNS,070639.0,4949.555812,N,01812.123133,E,AA,12,0.7,235.4,43.0,,*65
$GPVTG,291.4,T,289.1,M,25.7,N,47.6,K,A*2A
$GPGSA,A,2,07,08,10,13,15,16,20,21,26,,,,1.1,0.7,0.8*36
$GNGSA,A,2,07,08,10,13,15,16,20,21,26,,,,1.1,0.7,0.8*28
$GNGSA,A,2,83,67,68,,,,,,,,,,1.1,0.7,0.8*26
$BDGSA,A,2,,,,,,,,,,,,,1.1,0.7,0.8*2D
$GPRMC,070639.0,A,4949.555812,N,01812.123133,E,25.7,291.4,021117,2.4,E,A*37
$GLGSV,3,1,10,74,23,324,16,66,26,032,19,82,54,074,20,73,25,264,29*69
$GLGSV,3,2,10,80,02,220,15,83,56,316,24,67,54,098,22,68,24,163,29*67
$GLGSV,3,3,10,84,05,289,,81,08,098,*6E
$GPGSV,4,1,14,07,05,307,29,08,34,300,26,10,58,158,35,13,05,021,27*7B
$GPGSV,4,2,14,15,15,049,32,16,45,217,40,18,57,085,17,20,06,043,28*79
$GPGSV,4,3,14,21,36,073,23,26,23,192,40,27,73,295,16,30,03,334,30*7C
$GPGSV,4,4,14,33,,,32,38,,,33*76
$BDGSV,2,1,05,205,21,130,21,206,28,050,22,209,37,081,15,202,06,108,*6D
$BDGSV,2,2,05,213,00,092,*66
$GPGGA,070640.0,4949.558153,N,01812.113384,E,1,09,0.7,235.9,M,43.0,M,,*54
$GNGNS,070640.0,4949.558153,N,01812.113384,E,AA,12,0.7,235.9,43.0,,*6A
$GPVTG,291.4,T,289.0,M,25.6,N,47.3,K,A*2F
$GPGSA,A,2,07,08,10,13,15,16,20,21,26,,,,1.1,0.7,0.8*36
$GNGSA,A,2,07,08,10,13,15,16,20,21,26,,,,1.1,0.7,0.8*28
$GNGSA,A,2,83,67,68,,,,,,,,,,1.1,0.7,0.8*26
$BDGSA,A,2,,,,,,,,,,,,,1.1,0.7,0.8*2D
$GPRMC,070640.0,A,4949.558153,N,01812.113384,E,25.6,291.4,021117,2.4,E,A*34
$GLGSV,3,1,10,74,23,324,16,66,26,032,18,82,54,074,20,73,25,264,26*67
$GLGSV,3,2,10,83,56,316,22,67,54,098,19,68,24,163,27,80,02,220,*63
$GLGSV,3,3,10,84,05,289,,81,08,098,*6E
$GPGSV,4,1,14,07,05,307,28,08,34,300,25,10,58,158,34,13,05,021,29*76
$GPGSV,4,2,14,15,15,049,31,16,45,217,39,18,57,085,20,20,06,043,27*7F
$GPGSV,4,3,14,21,36,073,26,26,23,192,40,27,73,295,23,30,03,334,27*79
$GPGSV,4,4,14,33,,,32,38,,,33*76
$BDGSV,2,1,05,205,21,130,23,206,28,050,21,209,37,081,15,202,06,108,*6C
$BDGSV,2,2,05,213,00,092,*66
$GPGGA,070641.0,4949.560709,N,01812.103437,E,1,10,0.8,236.4,M,43.0,M,,*50
$GNGNS,070641.0,4949.560709,N,01812.103437,E,AA,12,0.8,236.4,43.0,,*66
$GPVTG,291.2,T,288.9,M,25.2,N,46.7,K,A*20
$GPGSA,A,2,07,08,10,13,15,16,20,21,26,27,,,1.1,0.8,0.7*33
$GNGSA,A,2,07,08,10,13,15,16,20,21,26,27,,,1.1,0.8,0.7*2D
$GNGSA,A,2,83,68,,,,,,,,,,,1.1,0.8,0.7*27
$BDGSA,A,2,,,,,,,,,,,,,1.1,0.8,0.7*2D
$GPRMC,070641.0,A,4949.560709,N,01812.103437,E,25.2,291.2,021117,2.4,E,A*3B
$GLGSV,3,1,10,74,23,324,16,66,26,032,22,82,54,074,16,73,25,264,27*6A
$GLGSV,3,2,10,83,56,316,24,67,54,098,17,68,24,163,28,80,02,220,*64
$GLGSV,3,3,10,84,05,289,,81,08,098,*6E
$GPGSV,4,1,14,07,05,307,27,08,34,300,27,10,58,158,35,13,05,021,27*74
$GPGSV,4,2,14,15,15,049,31,16,45,217,39,18,57,085,19,20,06,043,29*7B
$GPGSV,4,3,14,21,36,073,24,26,23,192,38,27,73,295,24,30,03,334,32*77
$GPGSV,4,4,14,33,,,32,38,,,34*71
$BDGSV,2,1,05,205,21,130,23,206,28,050,25,209,37,081,18,202,06,108,*65
$BDGSV,2,2,05,213,00,092,*66
$GPGGA,070642.0,4949.563067,N,01812.093267,E,1,10,0.7,236.9,M,43.0,M,,*56
$GNGNS,070642.0,4949.563067,N,01812.093267,E,AA,13,0.7,236.9,43.0,,*61
$GPVTG,291.0,T,288.7,M,24.9,N,46.2,K,A*23
$GPGSA,A,2,07,08,10,13,15,16,20,21,26,27,,,1.0,0.7,0.7*3D
$GNGSA,A,2,07,08,10,13,15,16,20,21,26,27,,,1.0,0.7,0.7*23
$GNGSA,A,2,66,83,68,,,,,,,,,,1.0,0.7,0.7*29
$BDGSA,A,2,,,,,,,,,,,,,1.0,0.7,0.7*23
$GPRMC,070642.0,A,4949.563067,N,01812.093267,E,24.9,291.0,021117,2.4,E,A*37
$GLGSV,3,1,10,74,23,324,23,66,26,032,20,82,54,074,16,73,25,264,29*60
$GLGSV,3,2,10,83,56,316,22,67,54,098,16,68,24,163,29,80,02,220,*62
$GLGSV,3,3,10,84,05,289,,81,08,098,*6E
$GPGSV,4,1,14,07,05,307,25,08,34,300,27,10,58,158,35,13,05,021,28*79
$GPGSV,4,2,14,15,15,049,26,16,45,217,38,18,57,085,21,20,06,043,26*78
$GPGSV,4,3,14,21,36,073,22,26,23,192,37,27,73,295,24,30,03,334,28*75
$GPGSV,4,4,14,33,,,33,38,,,36*72
$BDGSV,2,1,05,205,21,130,23,206,28,050,24,209,37,081,19,202,06,108,*65
$BDGSV,2,2,05,213,00,092,*66
$GPGGA,070643.0,4949.565231,N,01812.083349,E,1,11,0.7,237.1,M,43.0,M,,*54
$GNGNS,070643.0,4949.565231,N,01812.083349,E,AA,15,0.7,237.1,43.0,,*64
$GPVTG,290.4,T,288.1,M,24.7,N,45.8,K,A*27
$GPGSA,A,2,07,08,10,13,15,16,18,20,21,26,27,,1.0,0.7,0.7*34
$GNGSA,A,2,07,08,10,13,15,16,18,20,21,26,27,,1.0,0.7,0.7*2A
$GNGSA,A,2,74,66,83,68,,,,,,,,,1.0,0.7,0.7*2A
$BDGSA,A,2,,,,,,,,,,,,,1.0,0.7,0.7*23
$GPRMC,070643.0,A,4949.565231,N,01812.083349,E,24.7,290.4,021117,2.4,E,A*36
$GLGSV,3,1,10,74,23,324,25,66,26,032,21,82,54,074,18,73,25,264,29*69
$GLGSV,3,2,10,83,56,316,18,67,54,098,16,68,24,163,27,80,02,220,*65
$GLGSV,3,3,10,84,05,289,,81,08,098,*6E
$GPGSV,4,1,14,07,05,307,24,08,34,300,27,10,58,158,35,13,05,021,27*77
$GPGSV,4,2,14,15,15,049,30,16,45,217,38,18,57,085,24,20,06,043,22*7E
$GPGSV,4,3,14,21,36,073,24,26,23,192,37,27,73,295,25,30,03,334,28*72
$GPGSV,4,4,14,33,,,32,38,,,35*70
$BDGSV,2,1,05,205,21,130,23,206,28,050,23,209,37,081,20,202,06,108,*68
$BDGSV,2,2,05,213,00,092,*66
$GPGGA,070644.0,4949.567607,N,01812.073664,E,1,11,0.7,237.2,M,43.0,M,,*56
$GNGNS,070644.0,4949.567607,N,01812.073664,E,AA,14,0.7,237.2,43.0,,*67
$GPVTG,290.8,T,288.4,M,24.5,N,45.4,K,A*20
$GPGSA,A,2,07,08,10,13,15,16,18,20,21,26,27,,1.0,0.7,0.7*34
$GNGSA,A,2,07,08,10,13,15,16,18,20,21,26,27,,1.0,0.7,0.7*2A
$GNGSA,A,2,74,66,68,,,,,,,,,,1.0,0.7,0.7*21
$BDGSA,A,2,209,,,,,,,,,,,,1.0,0.7,0.7*18
$GPRMC,070644.0,A,4949.567607,N,01812.073664,E,24.5,290.8,021117,2.4,E,A*39
$GLGSV,3,1,10,74,23,324,25,66,26,032,22,82,54,074,19,73,25,264,30*63
$GLGSV,3,2,10,83,56,316,18,67,54,098,16,68,24,163,25,80,02,220,*67
$GLGSV,3,3,10,84,05,289,,81,08,098,*6E
$GPGSV,4,1,14,07,05,307,23,08,34,300,26,10,58,158,36,13,05,021,28*7D
$GPGSV,4,2,14,15,15,049,31,16,45,217,38,18,57,085,24,20,06,043,21*7C
$GPGSV,4,3,14,21,36,073,24,26,23,192,37,27,73,295,20,30,03,334,28*77
$GPGSV,4,4,14,33,,,33,38,,,34*70
$BDGSV,2,1,05,205,21,130,24,206,28,050,21,209,37,081,19,202,06,108,*67
$BDGSV,2,2,05,213,00,092,*66
$GPGGA,070645.0,4949.568966,N,01812.066357,E,1,10,0.7,237.3,M,43.0,M,,*51
$GNGNS,070645.0,4949.568966,N,01812.066357,E,AA,13,0.7,237.3,43.0,,*66
$GPVTG,287.2,T,284.8,M,21.8,N,40.4,K,A*21
$GPGSA,A,2,07,08,10,13,15,16,18,20,21,26,,,1.1,0.7,0.8*3F
$GNGSA,A,2,07,08,10,13,15,16,18,20,21,26,,,1.1,0.7,0.8*21
$GNGSA,A,2,74,66,68,,,,,,,,,,1.1,0.7,0.8*2F
$BDGSA,A,2,,,,,,,,,,,,,1.1,0.7,0.8*2D
$GPRMC,070645.0,A,4949.568966,N,01812.066357,E,21.8,287.2,021117,2.4,E,A*3A
$GLGSV,3,1,10,74,23,324,26,66,26,032,17,82,54,074,19,73,25,264,30*66
$GLGSV,3,2,10,83,56,316,14,67,54,098,16,68,24,163,26,80,02,220,*68
$GLGSV,3,3,10,84,05,289,,81,08,098,*6E
$GPGSV,4,1,14,07,05,307,18,08,34,300,29,10,58,158,36,13,05,021,27*75
$GPGSV,4,2,14,15,15,049,32,16,45,217,40,18,57,085,23,20,06,043,22*74
$GPGSV,4,3,14,21,36,073,24,26,23,192,37,27,73,295,19,30,03,334,26*73
$GPGSV,4,4,14,33,,,34,38,,,34*77
$BDGSV,2,1,05,205,21,130,24,206,28,050,20,209,37,081,21,202,06,108,*6D
$BDGSV,2,2,05,213,00,092,*66
$GPGGA,070646.0,4949.571499,N,01812.055930,E,1,09,0.8,236.9,M,43.0,M,,*50
$GNGNS,070646.0,4949.571499,N,01812.055930,E,AA,11,0.8,236.9,43.0,,*6D
$GPVTG,290.1,T,287.8,M,23.5,N,43.4,K,A*2B
$GPGSA,A,2,08,10,13,15,16,18,20,21,26,,,,1.1,0.8,0.8*37
$GNGSA,A,2,08,10,13,15,16,18,20,21,26,,,,1.1,0.8,0.8*29
$GNGSA,A,2,74,68,,,,,,,,,,,1.1,0.8,0.8*20
$BDGSA,A,2,209,,,,,,,,,,,,1.1,0.8,0.8*19
$GPRMC,070646.0,A,4949.571499,N,01812.055930,E,23.5,290.1,021117,2.4,E,A*3D
$GLGSV,3,1,10,74,23,324,26,66,26,032,20,82,54,074,18,73,25,264,31*62
$GLGSV,3,2,10,83,56,316,20,67,54,098,18,68,24,163,28,80,02,220,*6F
$GLGSV,3,3,10,84,05,289,,81,08,098,*6E
$GPGSV,4,1,14,07,05,307,23,08,34,300,30,10,58,158,35,13,05,021,30*70
$GPGSV,4,2,14,15,15,049,31,16,45,217,42,18,57,085,22,20,06,043,20*76
$GPGSV,4,3,14,21,36,073,26,26,23,192,37,27,73,295,24,30,03,334,27*7E
$GPGSV,4,4,14,33,,,34,38,,,34*77
$BDGSV,2,1,05,205,21,130,24,206,28,050,22,209,37,081,17,202,06,108,*6A
$BDGSV,2,2,05,213,00,092,*66
$GPGGA,070647.0,4949.574376,N,01812.044921,E,1,11,0.7,237.4,M,43.0,M,,*58
$GNGNS,070647.0,4949.574376,N,01812.044921,E,AA,14,0.7,237.4,43.0,,*69
$GPVTG,290.6,T,288.2,M,24.0,N,44.4,K,A*2C
$GPGSA,A,2,07,08,10,13,15,16,18,20,21,26,27,,1.0,0.7,0.7*34
$GNGSA,A,2,07,08,10,13,15,16,18,20,21,26,27,,1.0,0.7,0.7*2A
$GNGSA,A,2,74,66,68,,,,,,,,,,1.0,0.7,0.7*21
$BDGSA,A,2,,,,,,,,,,,,,1.0,0.7,0.7*23
$GPRMC,070647.0,A,4949.574376,N,01812.044921,E,24.0,290.6,021117,2.4,E,A*3A
$GLGSV,3,1,10,74,23,324,21,66,26,032,22,82,54,074,18,73,25,264,30*66
$GLGSV,3,2,10,83,56,316,17,67,54,098,18,68,24,163,27,80,02,220,*64
$GLGSV,3,3,10,84,05,289,,81,08,098,*6E
$GPGSV,4,1,14,07,05,307,24,08,34,300,30,10,58,158,33,13,05,021,28*78
$GPGSV,4,2,14,15,15,049,30,16,45,217,41,18,57,085,24,20,06,043,27*75
$GPGSV,4,3,14,21,36,073,26,26,23,192,37,27,73,295,21,30,03,334,29*75
$GPGSV,4,4,14,33,,,31,38,,,33*75
$BDGSV,2,1,05,205,21,130,23,206,28,050,24,209,37,081,17,202,06,108,*6B
$BDGSV,2,2,05,213,00,092,*66
$GPGGA,070648.0,4949.576952,N,01812.034963,E,1,11,0.7,237.9,M,43.0,M,,*55
$GNGNS,070648.0,4949.576952,N,01812.034963,E,AA,14,0.7,237.9,43.0,,*64
$GPVTG,290.6,T,288.3,M,24.0,N,44.5,K,A*2C
$GPGSA,A,2,07,08,10,13,15,16,18,20,21,26,27,,1.0,0.7,0.7*34
$GNGSA,A,2,07,08,10,13,15,16,18,20,21,26,27,,1.0,0.7,0.7*2A
$GNGSA,A,2,74,66,68,,,,,,,,,,1.0,0.7,0.7*21
$BDGSA,A,2,,,,,,,,,,,,,1.0,0.7,0.7*23
$GPRMC,070648.0,A,4949.576952,N,01812.034963,E,24.0,290.6,021117,2.4,E,A*3A
$GLGSV,3,1,10,74,23,324,19,66,26,032,21,82,54,074,14,73,25,264,29*6A
$GLGSV,3,2,10,83,56,316,17,67,54,098,18,68,24,163,28,80,02,220,*6B
$GLGSV,3,3,10,84,05,289,,81,08,098,*6E
$GPGSV,4,1,14,07,05,307,19,08,34,300,29,10,58,158,32,13,05,021,22*75
$GPGSV,4,2,14,15,15,049,31,16,45,217,40,18,57,085,24,20,06,043,27*75
$GPGSV,4,3,14,21,36,073,25,26,23,192,37,27,73,295,20,30,03,334,29*77
$GPGSV,4,4,14,33,,,29,38,,,29*77
$BDGSV,2,1,05,205,21,130,23,206,28,050,23,209,37,081,17,202,06,108,*6C
$BDGSV,2,2,05,213,00,092,*66
$GPGGA,070649.0,4949.579627,N,01812.024759,E,1,10,0.9,237.7,M,43.0,M,,*51
$GNGNS,070649.0,4949.579627,N,01812.024759,E,AA,12,0.9,237.7,43.0,,*67
$GPVTG,290.8,T,288.4,M,24.1,N,44.6,K,A*27
$GPGSA,A,2,08,10,13,15,16,18,20,21,26,27,,,1.2,0.9,0.8*30
$GNGSA,A,2,08,10,13,15,16,18,20,21,26,27,,,1.2,0.9,0.8*2E
$GNGSA,A,2,66,68,,,,,,,,,,,1.2,0.9,0.8*21
$BDGSA,A,2,,,,,,,,,,,,,1.2,0.9,0.8*20
$GPRMC,070649.0,A,4949.579627,N,01812.024759,E,24.1,290.8,021117,2.4,E,A*30
$GLGSV,3,1,10,74,23,324,20,66,26,032,21,82,54,074,14,73,25,264,28*61
$GLGSV,3,2,10,83,56,316,17,67,54,098,16,68,24,163,27,80,02,220,*6A
$GLGSV,3,3,10,84,05,289,,81,08,098,*6E
$GPGSV,4,1,14,07,05,307,21,08,34,300,28,10,58,158,34,13,05,021,28*73
$GPGSV,4,2,14,15,15,049,29,16,45,217,40,18,57,085,24,20,06,043,21*7A
$GPGSV,4,3,14,21,36,073,26,26,23,192,35,27,73,295,21,30,03,334,29*77
$GPGSV,4,4,14,33,,,31,38,,,31*77
$BDGSV,2,1,05,205,21,130,23,206,28,050,21,209,37,081,17,202,06,108,*6E
$BDGSV,2,2,05,213,00,092,*66
$GPGGA,070650.0,4949.582304,N,01812.015016,E,1,11,0.8,236.5,M,43.0,M,,*54
$GNGNS,070650.0,4949.582304,N,01812.015016,E,AA,13,0.8,236.5,43.0,,*62
$GPVTG,290.7,T,288.4,M,24.2,N,44.9,K,A*24
$GPGSA,A,2,07,08,10,13,15,16,18,20,21,26,27,,1.1,0.8,0.7*3A
$GNGSA,A,2,07,08,10,13,15,16,18,20,21,26,27,,1.1,0.8,0.7*24
$GNGSA,A,2,66,68,,,,,,,,,,,1.1,0.8,0.7*2C
$BDGSA,A,2,,,,,,,,,,,,,1.1,0.8,0.7*2D
$GPRMC,070650.0,A,4949.582304,N,01812.015016,E,24.2,290.7,021117,2.4,E,A*3A
$GLGSV,3,1,10,74,23,324,25,66,26,032,22,82,54,074,15,73,25,264,27*69
$GLGSV,3,2,10,83,56,316,17,67,54,098,18,68,24,163,20,80,02,220,*63
$GLGSV,3,3,10,84,05,289,,81,08,098,*6E
$GPGSV,4,1,14,07,05,307,24,08,34,300,28,10,58,158,34,13,05,021,26*78
$GPGSV,4,2,14,15,15,049,29,16,45,217,40,18,57,085,24,20,06,043,22*79
$GPGSV,4,3,14,21,36,073,23,26,23,192,38,27,73,295,20,30,03,334,28*7F
$GPGSV,4,4,14,33,,,31,38,,,31*77
$BDGSV,2,1,05,205,21,130,22,206,28,050,21,209,37,081,17,202,06,108,*6F
$BDGSV,2,2,05,213,00,092,*66
$GPGGA,070651.0,4949.584915,N,01812.004791,E,1,10,0.8,235.8,M,43.0,M,,*5E
$GNGNS,070651.0,4949.584915,N,01812.004791,E,AA,12,0.8,235.8,43.0,,*68
$GPVTG,291.0,T,288.6,M,24.0,N,44.4,K,A*2F
$GPGSA,A,2,07,08,10,13,15,16,18,20,21,26,,,1.2,0.8,0.8*33
$GNGSA,A,2,07,08,10,13,15,16,18,20,21,26,,,1.2,0.8,0.8*2D
$GNGSA,A,2,74,66,,,,,,,,,,,1.2,0.8,0.8*2D
$BDGSA,A,2,,,,,,,,,,,,,1.2,0.8,0.8*21
$GPRMC,070651.0,A,4949.584915,N,01812.004791,E,24.0,291.0,021117,2.4,E,A*3B
$GLGSV,3,1,10,74,23,324,24,66,26,032,21,82,54,074,18,73,25,264,26*67
$GLGSV,3,2,10,83,56,316,17,67,54,098,16,68,24,163,27,80,02,220,*6A
$GLGSV,3,3,10,84,05,289,,81,08,098,*6E
$GPGSV,4,1,14,07,05,307,23,08,34,300,28,10,58,158,35,13,05,021,28*70
$GPGSV,4,2,14,15,15,049,29,16,45,217,40,18,57,085,24,20,06,043,28*73
$GPGSV,4,3,14,21,36,073,24,26,23,192,39,27,73,295,22,30,03,334,30*72
$GPGSV,4,4,14,33,,,33,38,,,33*77
